iata_code,airport_name,latitude,longitude,elevation_ft,city,station_id,station_name,mindate,maxdate,distance
ABE,Lehigh Valley International Airport,40.652,-75.441,393,Allentown,WBAN:14737,"ALLENTOWN LEHIGH VALLEY INTERNATIONAL AIRPORT, PA US",1/1/1948,3/23/2020,0.616
ABI,Abilene Regional Airport,32.411,-99.682,1791,Abilene,WBAN:13962,"ABILENE REGIONAL AIRPORT, TX US",8/1/1946,3/23/2020,0.059
ABQ,Albuquerque International Sunport,35.04,-106.609,5355,Albuquerque,WBAN:23050,"ALBUQUERQUE INTERNATIONAL AIRPORT, NM US",7/1/1941,3/23/2020,0.629
ABR,Aberdeen Regional Airport,45.449,-98.422,1302,Aberdeen,WBAN:14929,"ABERDEEN REGIONAL AIRPORT, SD US",1/1/1948,3/23/2020,0.933
ABY,Southwest Georgia Regional Airport,31.535,-84.195,197,Albany,WBAN:13869,"ALBANY SW GEORGIA REGIONAL AIRPORT, GA US",1/1/1948,3/23/2020,0.082
ACK,Nantucket Memorial Airport,41.253,-70.06,47,Nantucket,WBAN:14756,"NANTUCKET MEMORIAL AIRPORT, MA US",1/1/1948,3/23/2020,0.07
ACT,Waco Regional Airport,31.611,-97.23,516,Waco,WBAN:13959,"WACO REGIONAL AIRPORT, TX US",5/14/1942,3/23/2020,0.889
ACV,California Redwood Coast-Humboldt County Airport,40.978,-124.109,221,Arcata/Eureka,WBAN:24283,"ARCATA EUREKA AIRPORT, CA US",12/1/1949,3/23/2020,0.033
ACY,Atlantic City International Airport,39.458,-74.577,75,Atlantic City,WBAN:93730,"ATLANTIC CITY INTERNATIONAL AIRPORT, NJ US",1/1/1947,3/23/2020,1.088
ADK,Adak Airport,51.878,-176.646,18,Adak Island,WBAN:25704,"ADAK AIRPORT, AK US",10/30/1942,3/23/2020,0
ADQ,Kodiak Airport,57.75,-152.494,78,Kodiak,WBAN:25501,"KODIAK AIRPORT, AK US",1/1/1945,3/23/2020,0.521
AEX,Alexandria International Airport,31.327,-92.55,89,Alexandria,WBAN:93915,"ALEXANDRIA INTERNATIONAL AIRPORT, LA US",10/1/2001,3/23/2020,1.185
AGS,Augusta Regional At Bush Field,33.37,-81.965,144,Augusta,WBAN:03820,"AUGUSTA BUSH FIELD AIRPORT, GA US",1/1/1948,3/23/2020,0.641
AKN,King Salmon Airport,58.677,-156.649,73,King Salmon,WBAN:25503,"KING SALMON AIRPORT, AK US",1/10/1942,3/23/2020,0.782
ALB,Albany International Airport,42.748,-73.802,285,Albany,WBAN:14735,"ALBANY INTERNATIONAL AIRPORT, NY US",1/1/1945,3/23/2020,0.251
ALO,Waterloo Regional Airport,42.557,-92.4,873,Waterloo,WBAN:94910,"WATERLOO MUNICIPAL AIRPORT, IA US",1/1/1949,3/23/2020,0.303
ALW,Walla Walla Regional Airport,46.095,-118.288,1194,Walla Walla,WBAN:24160,"WALLA WALLA REGIONAL AIRPORT, WA US",9/1/1941,3/23/2020,0.088
AMA,Rick Husband Amarillo International Airport,35.219,-101.706,3607,Amarillo,WBAN:23047,"AMARILLO AIRPORT, TX US",3/1/1943,3/23/2020,1.176
ANC,Ted Stevens Anchorage International Airport,61.174,-149.996,152,Anchorage,WBAN:26491,"ANCHORAGE LAKE HOOD SEA PLANE BASE, AK US",1/1/2002,3/23/2020,1.656
APF,Naples Municipal Airport,26.153,-81.775,8,Naples,WBAN:12897,"NAPLES MUNICIPAL AIRPORT, FL US",1/1/1999,3/23/2020,0.222
APN,Alpena County Regional Airport,45.078,-83.56,690,Alpena,WBAN:94849,"ALPENA CO REGIONAL AIRPORT, MI US",9/1/1959,3/23/2020,0.791
ART,Watertown International Airport,43.992,-76.022,325,Watertown,WBAN:94790,"WATERTOWN AIRPORT, NY US",5/1/1949,3/23/2020,0.502
ASE,Aspen-Pitkin Co/Sardy Field,39.223,-106.869,7820,Aspen,WBAN:93073,"ASPEN PITKIN CO AIRPORT SARDY FIELD, CO US",1/1/2005,3/23/2020,0.789
ATL,Hartsfield Jackson Atlanta International Airport,33.637,-84.428,1026,Atlanta,WBAN:13874,"ATLANTA HARTSFIELD INTERNATIONAL AIRPORT, GA US",1/1/1945,3/23/2020,1.492
ATW,Appleton International Airport,44.258,-88.519,918,Appleton,WBAN:04825,"APPLETON OUTAGAMIE CO AIRPORT, WI US",1/1/2005,3/23/2020,0.981
ATY,Watertown Regional Airport,44.914,-97.155,1749,Watertown,WBAN:14946,"WATERTOWN REGIONAL AIRPORT, SD US",1/1/1948,3/23/2020,1.124
AUS,Austin Bergstrom International Airport,30.194,-97.67,542,Austin,WBAN:13904,"AUSTIN BERGSTROM INTERNATIONAL AIRPORT, TX US",1/1/1949,3/23/2020,1.539
AVL,Asheville Regional Airport,35.436,-82.542,2165,Asheville,WBAN:03812,"ASHEVILLE AIRPORT, NC US",1/1/1948,3/23/2020,0.611
AVP,Wilkes Barre Scranton International Airport,41.339,-75.723,962,Wilkes-Barre/Scranton,WBAN:14777,"WILKES BARRE SCRANTON INTERNATIONAL AIRPORT, PA US",1/1/1949,3/23/2020,0.683
AZA,Phoenix-Mesa-Gateway Airport,33.308,-111.655,1382,Phoenix,WBAN:23104,"PHOENIX WILLIAMS GATEWAY AIRPORT, AZ US",3/1/1942,3/23/2020,1.403
AZO,Kalamazoo Battle Creek International Airport,42.235,-85.552,874,Kalamazoo,WBAN:94815,"KALAMAZOO BATTLE CREEK INTERNATIONAL AIRPORT, MI US",1/1/2005,3/23/2020,0.031
BDL,Bradley International Airport,41.939,-72.683,173,Hartford,WBAN:14740,"HARTFORD BRADLEY INTERNATIONAL AIRPORT, CT US",9/12/1941,3/23/2020,0.19
BET,Bethel Airport,60.78,-161.838,126,Bethel,WBAN:26615,"BETHEL AIRPORT, AK US",1/1/1945,3/23/2020,0.731
BFF,Western Neb. Rgnl/William B. Heilig Airport,41.874,-103.596,3967,Scottsbluff,WBAN:24028,"SCOTTSBLUFF W B HEILIG FIELD AIRPORT, NE US",1/13/1943,3/23/2020,0.462
BFL,Meadows Field,35.434,-119.057,510,Bakersfield,WBAN:23155,"BAKERSFIELD AIRPORT, CA US",10/1/1941,3/23/2020,0.258
BFM,Mobile Downtown Airport,30.627,-88.068,26,Mobile,WBAN:13838,"MOBILE DOWNTOWN AIRPORT, AL US",7/1/1942,3/23/2020,0.068
BGM,Greater Binghamton/Edwin A Link field,42.209,-75.98,1636,Binghamton,WBAN:04725,"BINGHAMTON GREATER AP, NY US",1/1/1948,3/23/2020,0.244
BGR,Bangor International Airport,44.807,-68.828,192,Bangor,WBAN:14606,"BANGOR INTERNATIONAL AIRPORT, ME US",12/1/1941,3/23/2020,1.269
BHM,Birmingham-Shuttlesworth International Airport,33.563,-86.754,650,Birmingham,WBAN:13876,"BIRMINGHAM AIRPORT, AL US",8/1/1942,3/23/2020,0.883
BIL,Billings Logan International Airport,45.808,-108.543,3652,Billings,WBAN:24033,"BILLINGS INTERNATIONAL AIRPORT, MT US",5/1/1935,3/23/2020,0.137
BIS,Bismarck Municipal Airport,46.773,-100.746,1661,Bismarck,WBAN:24011,"BISMARCK MUNICIPAL AIRPORT, ND US",7/1/1936,3/23/2020,1.013
BJI,Bemidji Regional Airport,47.509,-94.934,1391,Bemidji,WBAN:14958,"BEMIDJI MUNICIPAL AIRPORT, MN US",1/1/2005,3/23/2020,0.774
BKG,Branson Airport,36.532,-93.201,1302,Branson,WBAN:00207,"BRANSON AIRPORT, MO US",2/1/2009,3/23/2020,0.143
BLI,Bellingham International Airport,48.793,-122.538,170,Bellingham,WBAN:24217,"BELLINGHAM INTERNATIONAL AIRPORT, WA US",1/1/1948,3/23/2020,0.114
BLV,Scott AFB/Midamerica Airport,38.545,-89.835,459,Belleville,WBAN:13802,"BELLEVILLE SCOTT AFB, IL US",1/1/1938,3/23/2020,1.421
BMI,Central Illinois Regional Airport at Bloomington-Normal,40.477,-88.916,871,Bloomington/Normal,WBAN:54831,"BLOOMINGTON NORMAL AIRPORT, IL US",1/2/2005,3/23/2020,2.181
BNA,Nashville International Airport,36.125,-86.678,599,Nashville,WBAN:13897,"NASHVILLE INTERNATIONAL AIRPORT, TN US",1/1/1948,3/23/2020,1.213
BOI,Boise Air Terminal/Gowen Field,43.564,-116.223,2871,Boise,WBAN:24131,"BOISE AIR TERMINAL, ID US",1/1/1931,3/23/2020,1.156
BOS,General Edward Lawrence Logan International Airport,42.364,-71.005,20,Boston,WBAN:14739,"BOSTON, MA US",11/21/1943,3/23/2020,0.541
BPT,Southeast Texas Regional Airport,29.951,-94.021,15,Beaumont/Port Arthur,WBAN:12917,"PORT ARTHUR SE TX REGIONAL AIRPORT, TX US",7/1/1948,3/23/2020,0.065
BQK,Brunswick Golden Isles Airport,31.259,-81.466,26,Brunswick,WBAN:53883,"BRUNSWICK GLYNCO JETPORT AIRPORT, GA US",1/1/2005,3/23/2020,0.016
BQN,Rafael Hernandez International Airport,18.495,-67.135,66,Puerto Rico,WBAN:11603,"BORINQUEN AIRPORT, US",1/1/2006,3/30/2020,0
BRD,Brainerd Lakes Regional Airport,46.398,-94.138,1232,Brainerd,WBAN:94938,"BRAINERD CROW WING CO AIRPORT, MN US",1/1/2005,3/23/2020,0.879
BRO,Brownsville South Padre Island International Airport,25.907,-97.426,22,Brownsville,WBAN:12919,"BROWNSVILLE S PADRE ISLAND INTERNATIONAL AIRPORT, TX US",1/1/1947,3/23/2020,0.842
BRW,Wiley Post Will Rogers Memorial Airport,71.285,-156.766,44,UtqiaÄ¡vik,WBAN:27502,"BARROW AIRPORT, AK US",1/1/1945,3/23/2020,0
BTM,Bert Mooney Airport,45.955,-112.497,5550,Butte,WBAN:24135,"BUTTE BERT MOONEY AIRPORT, MT US",1/1/1948,3/23/2020,1.114
BTR,Baton Rouge Metropolitan Airport,30.533,-91.15,70,Baton Rouge,WBAN:13970,"BATON ROUGE METRO AIRPORT, LA US",1/1/1942,3/23/2020,0.553
BTV,Burlington International Airport,44.472,-73.153,335,Burlington,WBAN:14742,"BURLINGTON INTERNATIONAL AIRPORT, VT US",1/1/1948,3/23/2020,0.479
BUF,Buffalo Niagara International Airport,42.94,-78.732,728,Buffalo,WBAN:14733,"BUFFALO NIAGARA INTERNATIONAL, NY US",2/1/1942,3/23/2020,0.323
BUR,Bob Hope Airport,34.201,-118.359,778,Burbank,WBAN:23152,"BURBANK GLENDALE PASADENA AIRPORT, CA US",6/1/1943,3/23/2020,0.147
BWI,Baltimore/Washington International Thurgood Marshall Airport,39.175,-76.668,146,Baltimore,WBAN:93721,"BALTIMORE WASHINGTON INTERNATIONAL AIRPORT, MD US",1/1/1945,3/23/2020,1.395
BZN,Gallatin Field,45.778,-111.153,4473,Bozeman,WBAN:24132,"BOZEMAN GALLATIN FIELD AIRPORT, MT US",1/1/1948,3/23/2020,1.266
CAE,Columbia Metropolitan Airport,33.939,-81.119,236,Columbia,WBAN:13883,"COLUMBIA METROPOLITAN AIRPORT, SC US",4/24/1942,3/23/2020,0.375
CAK,Akron Canton Regional Airport,40.916,-81.442,1228,Akron,WBAN:14895,"AKRON CANTON AIRPORT, OH US",7/1/1948,3/23/2020,0.265
CBM,Columbus Air Force Base,33.644,-88.444,219,Columbus,WBAN:13825,"COLUMBUS AFB, MS US",3/1/1942,3/23/2020,0.868
CDC,Cedar City Regional Airport,37.701,-113.099,5622,Cedar City,WBAN:93129,"CEDAR CITY AIRPORT, UT US",11/1/1948,3/23/2020,0.936
CDV,Merle K (Mudhole) Smith Airport,60.492,-145.478,54,Cordova,WBAN:26410,"CORDOVA AIRPORT, AK US",6/11/1942,3/23/2020,1.521
CEC,Jack Mc Namara Field Airport,41.78,-124.237,61,Crescent City,WBAN:24286,"CRESCENT CITY MCNAMARA AIRPORT, CA US",10/15/1949,3/23/2020,0.041
CGI,Cape Girardeau Regional Airport,37.225,-89.571,342,Cape Girardeau,WBAN:03935,"CAPE GIRARDEAU MUNICIPAL AIRPORT, MO US",1/1/1973,3/23/2020,0.05
CHA,Lovell Field,35.035,-85.204,683,Chattanooga,WBAN:13882,"CHATTANOOGA AIRPORT, TN US",1/1/1948,3/23/2020,0.359
CHO,Charlottesville Albemarle Airport,38.139,-78.453,639,Charlottesville,WBAN:93736,"CHARLOTTESVILLE ALBEMARLE AIRPORT, VA US",4/20/1961,3/23/2020,0.262
CHS,Charleston Air Force Base-International Airport,32.899,-80.04,46,Charleston,WBAN:13880,"CHARLESTON INTL. AIRPORT, SC US",1/1/1945,3/23/2020,0.085
CIC,Chico Municipal Airport,39.795,-121.858,240,Chico,WBAN:93203,"CHICO ARMY FLYING SCHOOL, CA US",2/25/2005,3/23/2020,0.882
CID,The Eastern Iowa Airport,41.885,-91.711,869,Cedar Rapids,WBAN:14990,"CEDAR RAPIDS MUNICIPAL AIRPORT, IA US",1/1/1973,3/23/2020,0.502
CIU,Chippewa County International Airport,46.251,-84.472,800,Sault Ste Marie,WBAN:04869,"CHIPPEWA INTERNATIONAL AIRPORT, MI US",1/1/2005,3/23/2020,0.426
CKB,North Central West Virginia Airport,39.297,-80.228,1217,Clarksburg,WBAN:03802,"CLARKSBURG BENEDUM AIRPORT, WV US",1/1/2005,3/23/2020,0.177
CLD,Mc Clellan-Palomar Airport,33.128,-117.28,331,Carlsbad,WBAN:03177,"CARLSBAD MCCLELLAN PALOMAR AIRPORT, CA US",1/1/2005,3/23/2020,0.053
CLE,Cleveland Hopkins International Airport,41.412,-81.85,791,Cleveland,WBAN:14820,"CLEVELAND HOPKINS INTERNATIONAL AIRPORT, OH US",1/1/1948,3/23/2020,0.719
CLL,Easterwood Field,30.589,-96.364,320,College Station,WBAN:03904,"COLLEGE STATION EASTERWOOD FIELD, TX US",8/1/1951,3/23/2020,0.072
CLT,Charlotte Douglas International Airport,35.214,-80.943,748,Charlotte,WBAN:13881,"CHARLOTTE DOUGLAS AIRPORT, NC US",7/22/1941,3/23/2020,1.539
CMH,John Glenn Columbus International Airport,39.998,-82.892,815,Columbus,WBAN:14821,"PORT COLUMBUS INTERNATIONAL AIRPORT, OH US",4/1/1945,3/23/2020,1.516
CMI,University of Illinois Willard Airport,40.039,-88.278,755,Champaign/Urbana,WBAN:94870,"CHAMPAIGN URBANA WILLARD AIRPORT, IL US",1/1/2005,3/23/2020,0.082
CMX,Houghton County Memorial Airport,47.168,-88.489,1095,Hancock,WBAN:14858,"HANCOCK HOUGHTON CO AIRPORT, MI US",1/1/1948,3/23/2020,0.068
CNY,Canyonlands Field,38.755,-109.755,4557,Moab,WBAN:93075,"MOAB CANYONLAND AIRPORT, UT US",1/1/2005,3/23/2020,0.875
COD,Yellowstone Regional Airport,44.52,-109.024,5102,Cody,WBAN:24045,"CODY MUNICIPAL AIRPORT, WY US",1/1/2005,3/23/2020,0.69
COS,City of Colorado Springs Municipal Airport,38.806,-104.701,6187,Colorado Springs,WBAN:93037,"COLORADO SPRINGS MUNICIPAL AIRPORT, CO US",9/1/1942,3/23/2020,1.096
COU,Columbia Regional Airport,38.818,-92.22,889,Columbia,WBAN:03945,"COLUMBIA REGIONAL AIRPORT, MO US",11/1/1969,3/23/2020,0.192
CPR,Casper-Natrona County International Airport,42.908,-106.464,5350,Casper,WBAN:24089,"CASPER NATRONA CO AIRPORT, WY US",1/1/1940,3/23/2020,1.384
CRP,Corpus Christi International Airport,27.77,-97.501,44,Corpus Christi,WBAN:12924,"CORPUS CHRISTI INTERNATIONAL AIRPORT, TX US",8/1/1946,3/23/2020,1.122
CRW,Yeager Airport,38.373,-81.593,981,Charleston,WBAN:13866,"CHARLESTON YEAGER AIRPORT, WV US",2/1/1949,3/23/2020,0.757
CSG,Columbus Metropolitan Airport,32.516,-84.939,397,Columbus,WBAN:93842,"COLUMBUS METROPOLITAN AIRPORT, GA US",1/1/1948,3/23/2020,0.259
CVG,Cincinnati Northern Kentucky International Airport,39.049,-84.668,896,Cincinnati,WBAN:93814,"CINCINNATI NORTHERN KENTUCKY INTERNATIONAL AIRPORT, KY US",1/1/1948,3/23/2020,0.637
CWA,Central Wisconsin Airport,44.778,-89.667,1277,Mosinee,WBAN:94890,"MOSINEE, WI US",2/24/2005,3/23/2020,0.593
CYS,Cheyenne Regional Jerry Olson Field,41.156,-104.812,6159,Cheyenne,WBAN:24018,"CHEYENNE WSFO AIRPORT, WY US",1/1/1948,3/23/2020,0.468
DAB,Daytona Beach International Airport,29.18,-81.058,34,Daytona Beach,WBAN:12834,"DAYTONA BEACH INTERNATIONAL AIRPORT, FL US",1/1/1948,3/23/2020,0.993
DAL,Dallas Love Field,32.847,-96.852,487,Dallas,WBAN:13960,"DALLAS FAA AIRPORT, TX US",7/26/1946,3/23/2020,0.635
DAY,James M Cox Dayton International Airport,39.902,-84.219,1009,Dayton,WBAN:93815,"DAYTON INTERNATIONAL AIRPORT, OH US",1/1/1948,3/23/2020,0.49
DBQ,Dubuque Regional Airport,42.402,-90.71,1077,Dubuque,WBAN:94908,"DUBUQUE REGIONAL AIRPORT, IA US",2/1/1951,3/23/2020,0.705
DCA,Ronald Reagan Washington National Airport,38.8521,-77.037697,15,Washington,WBAN:13743,"WASHINGTON REAGAN NATIONAL AIRPORT, VA US",9/1/1936,3/30/2020,0
DEN,Denver International Airport,39.862,-104.673,5431,Denver,WBAN:03017,"DENVER INTERNATIONAL AIRPORT, CO US",11/13/1974,3/23/2020,3.503
DFW,Dallas Fort Worth International Airport,32.897,-97.038,607,Dallas-Fort Worth,WBAN:03927,"DAL FTW WSCMO AIRPORT, TX US",5/1/1953,3/23/2020,1.789
DHN,Dothan Regional Airport,31.321,-85.45,401,Dothan,WBAN:13839,"DOTHAN REGIONAL AIRPORT, AL US",1/1/2005,3/23/2020,0.477
DIK,Dickinson Theodore Roosevelt Regional Airport,46.797,-102.802,2592,Dickinson,WBAN:24012,"DICKINSON THEODORE ROOSEVELT REGIONAL AIRPORT, ND US",12/1/1948,3/23/2020,0.453
DLG,Dillingham Airport,59.045,-158.505,81,Dillingham,WBAN:25513,"DILLINGHAM AIRPORT, AK US",2/25/2005,3/23/2020,0.872
DLH,Duluth International Airport,46.842,-92.194,1428,Duluth,WBAN:14913,"DULUTH INTERNATIONAL AIRPORT, MN US",1/1/1948,3/23/2020,0.994
DRO,Durango La Plata County Airport,37.152,-107.754,6685,Durango,WBAN:93005,"DURANGO LA PLATA CO AIRPORT, CO US",1/1/2005,3/23/2020,1.138
DRT,Del Rio International Airport,29.374,-100.927,1002,Del Rio,WBAN:22010,"DEL RIO INTERNATIONAL AIRPORT, TX US",5/1/1951,3/23/2020,0.488
DSM,Des Moines International Airport,41.534,-93.663,958,Des Moines,WBAN:14933,"DES MOINES INTERNATIONAL AIRPORT, IA US",1/1/1945,3/23/2020,0.755
DTW,Detroit Metropolitan Wayne County Airport,42.212,-83.353,645,Detroit,WBAN:94847,"DETROIT METRO AIRPORT, MI US",8/1/1942,3/23/2020,2.821
DUT,Unalaska Airport,53.9,-166.544,22,Unalaska,WBAN:25616," DUTCH HARBOR, AK US",2/24/2005,3/23/2020,0
DVL,Devils Lake Regional Airport,48.114,-98.909,1456,Devils Lake,WBAN:94928,"DEVILS LAKE MUNICIPAL AIRPORT, ND US",1/1/2005,3/23/2020,0.733
EAR,Kearney Regional Airport,40.727,-99.007,2131,Kearney,WBAN:14905,"KEARNEY MUNICIPAL AIRPORT, NE US",1/1/2005,3/23/2020,0.549
EAT,Pangborn Memorial Airport,47.399,-120.207,1249,Wenatchee,WBAN:94239,"WENATCHEE PANGBORN MEMORIAL AIRPORT, WA US",1/1/2000,3/23/2020,0.454
EAU,Chippewa Valley Regional Airport,44.866,-91.484,913,Eau Claire,WBAN:14991,"CHIPPEWA VALLEY REGIONAL AIRPORT, WI US",10/1/1949,3/23/2020,0.313
ECP,Northwest Florida Beaches International Airport,30.357,-85.795,69,Panama City Beach,WBAN:73805,"NORTHWEST FLORIDA BEACHES INTERNATIONAL AIRPORT, FL US",5/23/2010,3/23/2020,1.113
EFD,Ellington Airport,29.607,-95.159,32,Houston,WBAN:12906,"HOUSTON ELLINGTON AFB, TX US",7/1/1941,3/23/2020,1.304
EGE,Eagle County Regional Airport,39.643,-106.918,6548,Eagle,WBAN:23063,"EAGLE CO AIRPORT, CO US",1/1/1948,3/23/2020,0.786
EKO,Elko Regional Airport,40.825,-115.792,5140,Elko,WBAN:24121,"ELKO REGIONAL AIRPORT, NV US",1/1/1948,3/23/2020,0.51
ELM,Elmira Corning Regional Airport,42.16,-76.892,954,Elmira/Corning,WBAN:14748,"ELMIRA CORNING REGIONAL AIRPORT, NY US",2/1/1949,3/23/2020,0.062
ELP,El Paso International Airport,31.807,-106.378,3959,El Paso,WBAN:23044,"EL PASO INTERNATIONAL AIRPORT, TX US",4/1/1941,3/23/2020,0.5
ERI,Erie International Tom Ridge Field,42.083,-80.174,732,Erie,WBAN:14860,"ERIE INTERNATIONAL AIRPORT, PA US",1/1/1948,3/23/2020,0.757
ESC,Delta County Airport,45.723,-87.094,609,Escanaba,WBAN:94853,"ESCANABA DELTA CO AIRPORT, MI US",1/1/2005,3/23/2020,1.417
EUG,Mahlon Sweet Field,44.125,-123.212,374,Eugene,WBAN:24221,"EUGENE MAHLON SWEET FIELD, OR US",1/1/1948,3/23/2020,0.755
EVV,Evansville Regional Airport,38.037,-87.532,418,Evansville,WBAN:93817,"EVANSVILLE REGIONAL AIRPORT, IN US",1/1/1948,3/23/2020,1.281
EWN,Coastal Carolina Regional Airport,35.073,-77.043,18,New Bern,WBAN:93719,"NEW BERN ASOS, NC US",1/1/1949,3/23/2020,0.744
EWR,Newark Liberty International Airport,40.693,-74.169,18,Newark,WBAN:14734,"NEWARK LIBERTY INTERNATIONAL AIRPORT, NJ US",1/1/1948,3/23/2020,1.166
EYW,Key West International Airport,24.556,-81.76,3,Key West,WBAN:12836,"KEY WEST INTERNATIONAL AIRPORT, FL US",1/1/1948,3/23/2020,0.482
FAI,Fairbanks International Airport,64.815,-147.856,439,Fairbanks,WBAN:26411,"FAIRBANKS INTERNATIONAL AIRPORT, AK US",1/1/1946,3/23/2020,0.885
FAR,Hector International Airport,46.921,-96.816,902,Fargo,WBAN:14914,"FARGO HECTOR INTERNATIONAL AIRPORT, ND US",1/1/1948,3/23/2020,0.606
FAT,Fresno Yosemite International Airport,36.776,-119.718,336,Fresno,WBAN:93193,"FRESNO YOSEMITE INTERNATIONAL, CA US",12/4/1941,3/23/2020,0.461
FAY,Fayetteville Regional Grannis Field,34.991,-78.88,189,Fayetteville,WBAN:93740,"FAYETTEVILLE REGIONAL AIRPORT GRANNIS FIELD, NC US",1/1/2005,3/23/2020,0.05
FCA,Glacier Park International Airport,48.311,-114.256,2977,Kalispell,WBAN:24146,"KALISPELL GLACIER AIRPORT, MT US",1/1/1948,3/23/2020,0.943
FLG,Flagstaff Pulliam Airport,35.139,-111.671,7014,Flagstaff,WBAN:03103,"FLAGSTAFF PULLIAM AIRPORT, AZ US",1/1/1948,3/23/2020,0.71
FLL,Fort Lauderdale Hollywood International Airport,26.073,-80.153,9,Fort Lauderdale,WBAN:12849,"FORT LAUDERDALE INTERNATIONAL AIRPORT, FL US",1/1/1946,3/23/2020,1.117
FLO,Florence Regional Airport,34.185,-79.724,146,Florence,WBAN:13744,"FLORENCE REGIONAL AIRPORT, SC US",1/1/1948,3/23/2020,0.7
FMN,Four Corners Regional Airport,36.741,-108.23,5506,Farmington,WBAN:23090,"FARMINGTON FOUR CORNERS REGIONAL AIRPORT, NM US",1/1/1949,3/23/2020,0.299
FNL,Northern Colorado Regional Airport,40.452,-105.011,5016,Fort Collins/Loveland,WBAN:94035,"FORT COLLINS LOVELAND AIRPORT, CO US",1/1/2006,3/23/2020,0.53
FNT,Bishop International Airport,42.965,-83.744,782,Flint,WBAN:14826,"FLINT FCWOS, MI US",12/1/1948,3/23/2020,0.475
FOE,Topeka Regional Airport - Forbes Field,38.951,-95.664,1078,Topeka,WBAN:13920,"TOPEKA FORBES FIELD, KS US",10/1/1942,3/23/2020,0.08
FSD,Joe Foss Field Airport,43.582,-96.742,1429,Sioux Falls,WBAN:14944,"SIOUX FALLS FOSS FIELD, SD US",10/1/1942,3/23/2020,1.068
FSM,Fort Smith Regional Airport,35.337,-94.367,469,Fort Smith,WBAN:13964,"FORT SMITH REGIONAL AIRPORT, AR US",1/1/1947,3/23/2020,0.604
FWA,Fort Wayne International Airport,40.979,-85.195,814,Fort Wayne,WBAN:14827,"FORT WAYNE INTERNATIONAL AIRPORT, IN US",11/1/1941,3/23/2020,1.34
GCC,Gillette Campbell County Airport,44.349,-105.539,4365,Gillette,WBAN:94023,"GILLETTE CAMPBELL CO AIRPORT, WY US",1/1/2005,3/23/2020,1.088
GCK,Garden City Regional Airport,37.928,-100.724,2891,Garden City,WBAN:23064,"GARDEN CITY REGIONAL AIRPORT, KS US",2/1/1943,3/23/2020,0.107
GEG,Spokane International Airport,47.62,-117.534,2376,Spokane,WBAN:24157,"SPOKANE INTERNATIONAL AIRPORT, WA US",8/11/1941,3/23/2020,0.485
GFK,Grand Forks International Airport,47.949,-97.176,845,Grand Forks,WBAN:14916,"GRAND FORKS INTERNATIONAL AIRPORT, ND US",12/1/1948,3/23/2020,0.907
GGG,East Texas Regional Airport,32.384,-94.712,365,Longview,WBAN:03901,"LONGVIEW E TEXAS REGIONAL AIRPORT, TX US",9/1/1950,3/23/2020,0.086
GJT,Grand Junction Regional Airport,39.122,-108.527,4858,Grand Junction,WBAN:23066,"GRAND JUNCTION WALKER FIELD, CO US",1/1/1948,3/23/2020,0.315
GLH,Mid Delta Regional Airport,33.483,-90.986,131,Greenville,WBAN:13939,"GREENVILLE ASOS, MS US",1/20/1942,3/23/2020,0.087
GNV,Gainesville Regional Airport,29.69,-82.272,152,Gainesville,WBAN:12816,"GAINESVILLE REGIONAL AIRPORT, FL US",11/1/1943,3/23/2020,0.399
GPT,Gulfport Biloxi International Airport,30.407,-89.07,28,Gulfport,WBAN:93874,"GULFPORT BILOXI AIRPORT, MS US",1/1/2005,3/23/2020,1.171
GRB,Austin Straubel International Airport,44.485,-88.13,695,Green Bay,WBAN:14898,"GREEN BAY A S INTERNATIONAL AIRPORT, WI US",9/1/1949,3/23/2020,0.814
GRI,Central Nebraska Regional Airport,40.967,-98.31,1847,Grand Island,WBAN:14935,"GRAND ISLAND CENTRAL NE REGIONAL AIRPORT, NE US",3/1/1944,3/23/2020,0.722
GRK,Robert Gray  Army Air Field Airport,31.067,-97.829,1015,Fort Hood/Killeen,WBAN:03902,"ROBERT GRAY ARMY AIR FIELD, TX US",9/26/1950,3/23/2020,0.415
GRR,Gerald R. Ford International Airport,42.881,-85.523,794,Grand Rapids,WBAN:94860,"GRAND RAPIDS GERALD R FORD INTERNATIONAL AIRPORT, MI US",12/1/1963,3/23/2020,0.182
GSO,Piedmont Triad International Airport,36.098,-79.937,925,Greensboro,WBAN:13723,"GREENSBORO AIRPORT, NC US",11/1/1945,3/23/2020,0.572
GSP,Greenville Spartanburg International Airport,34.896,-82.219,964,Greenville,WBAN:03870,"GRNVL SPART INTERNATIONAL AIRPORT, SC US",10/15/1962,3/23/2020,1.267
GST,Gustavus Airport,58.425,-135.707,35,Gustavus,WBAN:25380,"GUSTAVUS 2 NE, AK US",7/19/2012,3/23/2020,1.098
GTF,Great Falls International Airport,47.482,-111.371,3680,Great Falls,WBAN:24143,"GREAT FALLS AIRPORT, MT US",1/1/1948,3/23/2020,1.284
GTR,Golden Triangle Regional Airport,33.45,-88.591,264,Columbus/W Point/Starkville,WBAN:53893,"GOLDEN TRIANGLE, MS US",1/1/2005,3/23/2020,0.713
GUC,Gunnison Crested Butte Regional Airport,38.534,-106.933,7680,Gunnison,WBAN:93007,"GUNNISON CO AIRPORT, CO US",1/1/2005,3/23/2020,0.08
GUM,Antonio B. Won Pat International Airport,13.483,144.8,77,Guam,WBAN:41415,"GUAM INTERNATIONAL AIRPORT, US",12/31/1967,3/30/2020,0
HDN,Yampa Valley Airport,40.481,-107.218,6606,Hayden,WBAN:94025,"HAYDEN YAMPA VALLEY AIRPORT, CO US",1/1/2005,3/23/2020,0.044
HGR,Hagerstown Regional Richard A Henson Field,39.708,-77.729,703,Hagerstown,WBAN:93706,"HAGERSTOWN REGIONAL AIRPORT, MD US",1/1/2005,3/23/2020,0.233
HHH,Hilton Head Airport,32.224,-80.698,19,Hilton Head Island,WBAN:63837,"HILTON HEAD ISLAND AIRPORT, SC US",1/1/2006,3/23/2020,0.834
HIB,Range Regional Airport,47.387,-92.839,1354,Hibbing,WBAN:94931,"HIBBING CHISHOLM HIBBING AIRPORT, MN US",1/1/1972,3/23/2020,0.068
HKY,Hickory Regional Airport,35.741,-81.39,1190,Hickory,WBAN:03810,"HICKORY FAA AIRPORT, NC US",1/1/1949,3/23/2020,0.707
HLN,Helena Regional Airport,46.607,-111.983,3877,Helena,WBAN:24144,"HELENA AIRPORT ASOS, MT US",1/1/1948,3/23/2020,1.494
HNL,Daniel K Inouye International Airport,21.321,-157.924,13,Honolulu,WBAN:22521,"HONOLULU INTERNATIONAL AIRPORT, HI US",6/1/1939,3/23/2020,0.651
HOB,Lea County Regional Airport,32.688,-103.217,3661,Hobbs,WBAN:93034,"HOBBS FAA, NM US",11/1/1942,3/23/2020,0.724
HOU,William P Hobby Airport,29.645,-95.279,46,Houston,WBAN:12918,"HOUSTON WILLIAM P HOBBY AIRPORT, TX US",7/1/1948,3/23/2020,0.82
HPN,Westchester County Airport,41.067,-73.708,439,White Plains,WBAN:94745,"WESTCHESTER CO AIRPORT, NY US",1/1/1949,3/23/2020,0.588
HRL,Valley International Airport,26.229,-97.654,36,Harlingen,WBAN:12904,"HARLINGEN RIO GRANDE VALLEY INTERNATIONAL AIRPORT, TX US",3/1/1942,3/23/2020,0.106
HSV,Huntsville International Carl T Jones Field,34.637,-86.775,629,Huntsville,WBAN:03856,"HUNTSVILLE INTERNATIONAL AIRPORT JONES FIELD, AL US",9/1/1958,3/23/2020,1.274
HTS,Tri-State/Milton J. Ferguson Field,38.367,-82.558,828,Huntington,WBAN:03860,"HUNTINGTON TRI STATE AIRPORT, WV US",12/1/1961,3/23/2020,0.333
HVN,Tweed New Haven Airport,41.264,-72.887,12,New Haven,WBAN:14758,"NEW HAVEN TWEED AIRPORT, CT US",1/1/1948,3/23/2020,0.022
HYA,Barnstable Municipal Boardman Polando Field,41.669,-70.28,54,Hyannis,WBAN:94720,"HYANNIS BARNSTABLE MUNICIPAL AIRPORT, MA US",1/1/2005,3/23/2020,0.043
HYS,Hays Regional Airport,38.842,-99.273,1999,Hays,WBAN:03968,"HAYS MUNICIPAL AIRPORT, KS US",1/1/2005,3/23/2020,0.901
IAD,Washington Dulles International Airport,38.94449997,-77.45580292,312,Washington,WBAN:93738,"WASHINGTON DULLES INTERNATIONAL AIRPORT, VA US",11/17/1962,3/30/2020,0
IAG,Niagara Falls International Airport,43.107,-78.946,589,Niagara Falls,WBAN:04724,"NIAGARA FALLS INTERNATIONAL AIRPORT, NY US",6/12/1951,3/23/2020,0.663
IAH,George Bush Intercontinental Houston Airport,29.984,-95.341,97,Houston,WBAN:12960,"HOUSTON INTERCONTINENTAL AIRPORT, TX US",6/1/1969,3/23/2020,1.886
ICT,Wichita Eisenhower National Airport,37.65,-97.433,1333,Wichita,WBAN:03928,"WICHITA DWIGHT D. EISENHOWER NATIONAL AIRPORT, KS US",1/1/1954,3/23/2020,0.384
IDA,Idaho Falls Regional Airport,43.515,-112.071,4744,Idaho Falls,WBAN:24145,"IDAHO FALLS FANNING FIELD, ID US",1/1/1948,3/23/2020,0.726
IFP,Laughlin Bullhead International Airport,35.157,-114.56,701,Bullhead City,WBAN:53135,"LAUGHLIN BULLHEAD INTERNATIONAL AIRPORT, AZ US",4/18/2005,3/23/2020,0.057
ILE,Skylark Field,31.086,-97.687,848,Killeen,WBAN:03972,"KILLEEN MUNICIPAL AIRPORT, TX US",1/1/2005,3/23/2020,0.459
ILG,New Castle Airport,39.679,-75.606,80,Wilmington,WBAN:13781,"WILMINGTON NEW CASTLE CO AIRPORT, DE US",8/1/1942,3/23/2020,0.512
ILM,Wilmington International Airport,34.271,-77.903,32,Wilmington,WBAN:13748,"WILMINGTON INTERNATIONAL AIRPORT, NC US",6/1/1942,3/23/2020,0.493
IMT,Ford Airport,45.818,-88.115,1182,Iron Mountain / Kingsford,WBAN:94893,"IRON MOUNTAIN FORD AIRPORT, MI US",1/1/2005,3/23/2020,0.057
IND,Indianapolis International Airport,39.717,-86.294,797,Indianapolis,WBAN:93819,"INDIANAPOLIS INTERNATIONAL AIRPORT, IN US",10/6/1942,3/23/2020,1.392
INL,Falls International Airport,48.566,-93.403,1185,International Falls,WBAN:14918,"INTERNATIONAL FALLS INTERNATIONAL AIRPORT, MN US",1/1/1948,3/23/2020,0.626
IPL,Imperial County Airport,32.834,-115.579,-54,Imperial,WBAN:03144,"IMPERIAL CO AIRPORT, CA US",1/1/2005,3/23/2020,0.041
IPT,Williamsport Regional Airport,41.242,-76.921,529,Williamsport,WBAN:14778,"WILLIAMSPORT REGIONAL AIRPORT, PA US",7/1/1948,3/23/2020,0.156
ISN,Sloulin Field International Airport,48.178,-103.642,1982,Williston,GHCND:USW00094014,"WILLISTON SLOULIN FIELD, ND US",1/1/1894,1/6/2020,0.616
ISO,Kinston Regional Jetport At Stallings Field,35.331,-77.609,93,Kinston,WBAN:93726,"KINSTON STALLINGS FIELD, NC US",11/1/1954,3/23/2020,2.724
ISP,Long Island Mac Arthur Airport,40.795,-73.1,99,Islip,WBAN:04781,"ISLIP LI MACARTHUR AIRPORT, NY US",1/1/1973,3/23/2020,0.202
ITH,Ithaca Tompkins Regional Airport,42.491,-76.458,1099,Ithaca,WBAN:94761,"ITHACA TOMPKINS CNTY, NY US",8/4/2005,3/23/2020,1.111
ITO,Hilo International Airport,19.721,-155.048,38,Hilo,WBAN:21504,"HILO INTERNATIONAL AIRPORT 87, HI US",4/15/1943,3/23/2020,0.565
IYK,Inyokern Airport,35.659,-117.83,2457,Inyokern,WBAN:93104,"CHINA LAKE NAF, CA US",4/1/1945,3/23/2020,12.791
JAC,Jackson Hole Airport,43.607,-110.738,6451,Jackson,WBAN:24166,"JACKSON HOLE AIRPORT, WY US",1/1/2005,3/23/2020,0.864
JAN,Jackson-Medgar Wiley Evers International Airport,32.311,-90.076,346,Jackson,WBAN:03940,"JACKSON INTERNATIONAL AIRPORT, MS US",9/1/1942,3/23/2020,0.997
JAX,Jacksonville International Airport,30.494,-81.688,30,Jacksonville,WBAN:13889,"JACKSONVILLE INTERNATIONAL AIRPORT, FL US",1/1/1948,3/23/2020,0.549
JFK,John F Kennedy International Airport,40.64,-73.779,13,New York,WBAN:94789,"JFK INTERNATIONAL AIRPORT, NY US",7/1/1948,3/23/2020,1.272
JHM,Kapalua Airport,20.963,-156.673,256,Lahaina,WBAN:22552,"KAPALUA W. MAUI AIRPORT 462.4, HI US",9/20/2005,3/23/2020,0.246
JLN,Joplin Regional Airport,37.152,-94.498,981,Joplin,WBAN:13987,"JOPLIN REGIONAL AIRPORT, MO US",1/1/1948,3/23/2020,0.244
JMS,Jamestown Regional Airport,46.93,-98.678,1500,Jamestown,WBAN:14919,"JAMESTOWN MUNICIPAL AIRPORT, ND US",12/1/1948,3/23/2020,0.823
JNU,Juneau International Airport,58.355,-134.576,21,Juneau,WBAN:25309,"JUNEAU AIRPORT, AK US",7/1/1948,3/23/2020,0.725
KOA,Ellison Onizuka Kona International At Keahole Airport,19.739,-156.046,47,Kailua/Kona,WBAN:21510,"KAILUA KONA KE AHOLE AIRPORT, HI US",1/1/2005,3/23/2020,0.487
KTN,Ketchikan International Airport,55.356,-131.714,89,Ketchikan,WBAN:25325,"KETCHIKAN AIRPORT, AK US",7/1/1948,3/23/2020,4.114
LAN,Capital City Airport,42.779,-84.587,861,Lansing,WBAN:14836,"LANSING CAPITAL CITY AIRPORT, MI US",1/1/1948,3/23/2020,1.088
LAR,Laramie Regional Airport,41.312,-105.675,7284,Laramie,WBAN:24022,"LARAMIE AIRPORT, WY US",1/1/1948,3/23/2020,0.869
LAS,McCarran International Airport,36.08,-115.152,2181,Las Vegas,WBAN:23169,"MCCARRAN INTERNATIONAL AIRPORT, NV US",12/19/1948,3/23/2020,1.365
LAW,Lawton Fort Sill Regional Airport,34.568,-98.417,1110,Lawton,WBAN:03950,"LAWTON MUNICIPAL AIRPORT, OK US",1/1/2005,3/23/2020,1.065
LAX,Los Angeles International Airport,33.943,-118.408,125,Los Angeles,WBAN:23174,"LOS ANGELES INTERNATIONAL AIRPORT, CA US",1/1/1944,3/23/2020,1.86
LBB,Lubbock Preston Smith International Airport,33.664,-101.823,3282,Lubbock,WBAN:23042,"LUBBOCK INTERNATIONAL AIRPORT, TX US",8/10/1945,3/23/2020,0.178
LBE,Arnold Palmer Regional Airport,40.276,-79.405,1199,Latrobe,WBAN:54735,"LATROBE, PA US",1/2/2005,3/23/2020,0.918
LBF,North Platte Regional Airport Lee Bird Field,41.126,-100.684,2777,North Platte,WBAN:24023,"NORTH PLATTE REGIONAL AIRPORT, NE US",1/1/1948,3/23/2020,1.333
LBL,Liberal Mid-America Regional Airport,37.044,-100.96,2885,Liberal,WBAN:23020,"LIBERAL MUNICIPAL AIRPORT, KS US",1/1/2005,3/23/2020,0.892
LCH,Lake Charles Regional Airport,30.126,-93.223,15,Lake Charles,WBAN:03937,"LAKE CHARLES REGIONAL AIRPORT, LA US",5/2/1942,3/23/2020,0.533
LCK,Rickenbacker International Airport,39.814,-82.928,744,Columbus,WBAN:13812,"COLUMBUS RICKENBACKER, OH US",8/1/1942,3/23/2020,0.544
LEX,Blue Grass Airport,38.036,-84.606,979,Lexington,WBAN:93820,"LEXINGTON BLUEGRASS AIRPORT, KY US",1/1/1948,3/23/2020,0.533
LFT,Lafayette Regional Airport,30.205,-91.988,42,Lafayette,WBAN:13976,"LAFAYETTE REGIONAL AIRPORT, LA US",10/1/1945,3/23/2020,0.048
LGA,La Guardia Airport,40.777,-73.873,21,New York,WBAN:14732,"LAGUARDIA AIRPORT, NY US",7/1/1948,3/23/2020,0.677
LGB,Long Beach /Daugherty Field/ Airport,33.818,-118.152,60,Long Beach,WBAN:23129,"LONG BEACH DAUGHERTY AIRPORT, CA US",1/1/1943,3/23/2020,0.885
LIH,Lihue Airport,21.976,-159.339,153,Lihue,WBAN:22536,"LIHUE WEATHER SERVICE OFFICE AIRPORT 1020.1, HI US",2/1/1950,3/23/2020,0.888
LIT,Bill & Hillary Clinton National Airport/Adams Field,34.729,-92.224,262,Little Rock,WBAN:13963,"LITTLE ROCK AIRPORT ADAMS FIELD, AR US",7/1/1948,3/23/2020,1.378
LMT,Crater Lake-Klamath Regional Airport,42.156,-121.733,4095,Klamath Falls,WBAN:94236,"KLAMATH FALLS INTERNATIONAL AIRPORT, OR US",9/1/1959,3/23/2020,1.243
LNK,Lincoln Airport,40.851,-96.759,1219,Lincoln,WBAN:14939,"LINCOLN AIRPORT, NE US",10/1/1942,3/23/2020,0.97
LNY,Lanai Airport,20.786,-156.951,1308,Lanai City,WBAN:22524,"LANAI AIRPORT 656, HI US",8/17/2005,3/23/2020,0.467
LRD,Laredo International Airport,27.544,-99.462,508,Laredo,WBAN:12907,"LAREDO INTERNATIONAL AIRPORT, TX US",2/25/2005,3/23/2020,1.269
LSE,La Crosse Municipal Airport,43.879,-91.257,655,La Crosse,WBAN:14920,"LA CROSSE MUNICIPAL AIRPORT, WI US",1/1/1948,3/23/2020,0.346
LWB,Greenbrier Valley Airport,37.858,-80.399,2302,Lewisburg,WBAN:53801,"LEWISBURG, WV US",1/1/2005,3/23/2020,0.483
LWS,Lewiston Nez Perce County Airport,46.375,-117.015,1442,Lewiston,WBAN:24149,"LEWISTON NEZ PERCE CO AIRPORT, ID US",1/1/1948,3/23/2020,0.057
LYH,Lynchburg Regional Preston Glenn Field,37.327,-79.2,938,Lynchburg,WBAN:13733,"LYNCHBURG INTERNATIONAL AIRPORT, VA US",1/1/1948,3/23/2020,0.909
MAF,Midland International Airport,31.942,-102.202,2871,Midland,WBAN:23023,"MIDLAND INTERNATIONAL AIRPORT, TX US",2/1/1948,3/23/2020,0.873
MBS,MBS International Airport,43.533,-84.08,668,Saginaw,WBAN:14845,"SAGINAW MBS INTERNATIONAL AIRPORT, MI US",12/1/1948,3/23/2020,0.024
MCI,Kansas City International Airport,39.298,-94.714,1026,Kansas City,WBAN:03947,"KANSAS CITY INTERNATIONAL AIRPORT, MO US",10/1/1972,3/23/2020,1.435
MCN,Middle Georgia Regional Airport,32.693,-83.649,354,Macon,WBAN:03813,"MACON MIDDLE GA REGIONAL AIRPORT, GA US",10/20/1941,3/23/2020,0.984
MCO,Orlando International Airport,28.429,-81.309,96,Orlando,WBAN:12815,"ORLANDO INTERNATIONAL AIRPORT, FL US",5/7/1952,3/23/2020,1.659
MDT,Harrisburg International Airport,40.194,-76.763,310,Harrisburg,WBAN:14711,"MIDDLETOWN HARRISBURG INTERNATIONAL AIRPORT, PA US",2/1/1935,3/23/2020,0.837
MDW,Chicago Midway International Airport,41.786,-87.752,620,Chicago,WBAN:14819,"CHICAGO MIDWAY AIRPORT, IL US",1/1/1948,3/23/2020,0.022
MEI,Key Field,32.333,-88.752,297,Meridian,WBAN:13865,"MERIDIAN KEY FIELD, MS US",3/1/1942,3/23/2020,0.758
MEM,Memphis International Airport,35.042,-89.977,341,Memphis,WBAN:13893,"MEMPHIS INTERNATIONAL AIRPORT, TN US",10/1/1946,3/23/2020,1.818
MFE,Mc Allen Miller International Airport,26.176,-98.239,107,Mc Allen,WBAN:12959,"MCALLEN MILLER INTERNATIONAL AIRPORT, TX US",1/1/1973,3/23/2020,1.726
MFR,Rogue Valley International Medford Airport,42.374,-122.873,1335,Medford,WBAN:24225,"MEDFORD INTERNATIONAL AIRPORT, OR US",1/1/1948,3/23/2020,0.791
MGM,Montgomery Regional (Dannelly Field) Airport,32.301,-86.394,221,Montgomery,WBAN:13895,"MONTGOMERY AIRPORT, AL US",1/1/1948,3/23/2020,1.28
MHK,Manhattan Regional Airport,39.141,-96.671,1057,Manhattan,WBAN:03936,"MANHATTAN ASOS, KS US",1/1/2005,3/23/2020,0.98
MHT,Manchester-Boston Regional Airport,42.933,-71.436,266,Manchester,WBAN:14710,"MANCHESTER AIRPORT, NH US",1/1/1949,3/23/2020,0.375
MIA,Miami International Airport,25.793,-80.291,8,Miami,WBAN:12839,"MIAMI INTERNATIONAL AIRPORT, FL US",1/1/1948,3/23/2020,2.654
MKC,Charles B. Wheeler Downtown Airport,39.123,-94.593,759,Kansas City,WBAN:13988,"KANSAS CITY DOWNTOWN AIRPORT, MO US",1/1/1948,3/23/2020,0.416
MKE,General Mitchell International Airport,42.947,-87.897,723,Milwaukee,WBAN:14839,"MILWAUKEE MITCHELL INTERNATIONAL AIRPORT, WI US",1/1/1948,3/23/2020,1.074
MKG,Muskegon County Airport,43.169,-86.238,629,Muskegon,WBAN:14840,"MUSKEGON CO AIRPORT, MI US",1/1/1948,3/23/2020,0.258
MKK,Molokai Airport,21.153,-157.096,454,Kaunakakai,WBAN:22534,"MOLOKAI KAUNAKAKAI MOLOKAI AIRPORT, HI US",1/1/2005,3/23/2020,0.166
MLB,Melbourne International Airport,28.103,-80.645,33,Melbourne,WBAN:12838,"MELBOURNE INTERNATIONAL AIRPORT, FL US",1/1/1948,3/23/2020,0.237
MLI,Quad City International Airport,41.449,-90.507,590,Moline,WBAN:14923,"MOLINE QUAD CITY INTERNATIONAL AIRPORT, IL US",2/9/1948,3/23/2020,2.265
MLU,Monroe Regional Airport,32.511,-92.038,79,Monroe,WBAN:13942,"MONROE REGIONAL AIRPORT, LA US",10/1/1942,3/23/2020,0.552
MMH,Mammoth Yosemite Airport,37.624,-118.838,7135,Mammoth Lakes,WBAN:03181,"MAMMOTH LAKES MAMMOTH YOSEMITE AIRPORT, CA US",4/21/2005,3/23/2020,1.481
MOB,Mobile Regional Airport,30.691,-88.243,219,Mobile,WBAN:13894,"MOBILE REGIONAL AIRPORT, AL US",1/1/1948,3/23/2020,0.384
MOD,Modesto City Co-Harry Sham Field,37.626,-120.954,97,Modesto,WBAN:23258,"MODESTO CITY CO AIRPORT, CA US",1/1/1973,3/23/2020,0.374
MOT,Minot International Airport,48.259,-101.28,1716,Minot,WBAN:24013,"MINOT INTERNATIONAL AIRPORT, ND US",12/1/1948,3/23/2020,0.653
MQT,Sawyer International Airport,46.354,-87.395,1221,Marquette,WBAN:94836,"GWINN K I SAWYER AFB, MI US",1/1/2005,3/23/2020,0.588
MRY,Monterey Peninsula Airport,36.587,-121.843,257,Monterey,WBAN:23259,"MONTEREY PENINSUL AIRPORT, CA US",1/1/2005,3/23/2020,0.239
MSN,Dane County Regional Truax Field,43.14,-89.338,887,Madison,WBAN:14837,"MADISON DANE CO REGIONAL AIRPORT, WI US",1/1/1948,3/23/2020,0.588
MSO,Missoula International Airport,46.916,-114.091,3206,Missoula,WBAN:24153,"MISSOULA INTERNATIONAL AIRPORT, MT US",1/1/1948,3/23/2020,0.546
MSP,Minneapolis-St Paul International/Wold-Chamberlain Airport,44.882,-93.222,841,Minneapolis,WBAN:14922,"MINNEAPOLIS ST. PAUL INTERNATIONAL AIRPORT, MN US",1/1/1945,3/23/2020,0.559
MSY,Louis Armstrong New Orleans International Airport,29.993,-90.258,4,New Orleans,WBAN:12916,"NEW ORLEANS AIRPORT, LA US",10/1/1945,3/23/2020,1.932
MTH,The Florida Keys Marathon Airport,24.726,-81.051,5,Marathon,WBAN:12896,"MARATHON AIRPORT, FL US",1/1/2005,3/23/2020,0.07
MTJ,Montrose Regional Airport,38.51,-107.894,5759,Montrose,WBAN:93013,"MONTROSE REGIONAL AIRPORT, CO US",1/1/2005,3/23/2020,0.629
MVY,Martha's Vineyard Airport,41.393,-70.614,67,Martha's Vineyard,WBAN:94724,"VINEYARD HAVEN MARTHAS VINEYARD AIRPORT, MA US",1/1/2005,3/23/2020,0.084
MWH,Grant County International Airport,47.208,-119.32,1189,Moses Lake,WBAN:24110,"MOSES LAKE GRANT CO AIRPORT, WA US",6/10/1943,3/23/2020,0.067
MYR,Myrtle Beach International Airport,33.68,-78.928,25,Myrtle Beach,WBAN:13717,"MYRTLE BEACH AFB, SC US",11/1/1942,3/23/2020,0.617
OAJ,Albert J Ellis Airport,34.829,-77.612,94,Jacksonville,WBAN:93753,"JACKSONVILLE ALBERT ELLIS AIRPORT, NC US",1/1/2005,3/23/2020,0.643
OAK,Metropolitan Oakland International Airport,37.721,-122.221,9,Oakland,WBAN:23230,"OAKLAND METROPOLITAN, CA US",1/1/1943,3/23/2020,0.048
OGD,Ogden Hinckley Airport,41.196,-112.012,4473,Ogden,WBAN:24126,"OGDEN HINKLEY AIRPORT, UT US",1/1/1948,3/23/2020,0.053
OGG,Kahului Airport,20.899,-156.43,54,Kahului,WBAN:22516,"KAHULUI AIRPORT, HI US",4/1/1945,3/23/2020,0.165
OGS,Ogdensburg International Airport,44.682,-75.465,297,Ogdensburg,WBAN:94725,"MASSENA INTERNATIONAL AIRPORT, NY US",2/1/1949,3/23/2020,57
OKC,Will Rogers World Airport,35.393,-97.601,1295,Oklahoma City,WBAN:13967,"OKLAHOMA CITY WILL ROGERS WORLD AIRPORT, OK US",12/14/1941,3/23/2020,0.456
OMA,Eppley Airfield,41.303,-95.894,984,Omaha,WBAN:14942,"OMAHA EPPLEY AIRFIELD, NE US",1/1/1948,3/23/2020,0.907
OME,Nome Airport,64.512,-165.445,37,Nome,WBAN:26617,"NOME AIRPORT, AK US",1/1/1940,3/23/2020,0.26
ONT,Ontario International Airport,34.056,-117.601,944,Ontario,WBAN:03102,"ONTARIO INTERNATIONAL AIRPORT, CA US",1/1/1968,3/23/2020,0.068
ORD,Chicago O'Hare International Airport,41.979,-87.905,672,Chicago,WBAN:94846,"CHICAGO OHARE INTERNATIONAL AIRPORT, IL US",10/1/1946,3/23/2020,3.039
ORF,Norfolk International Airport,36.895,-76.201,26,Norfolk,WBAN:13737,"NORFOLK INTERNATIONAL AIRPORT, VA US",1/1/1948,3/23/2020,1.21
ORH,Worcester Regional Airport,42.267,-71.876,1009,Worcester,WBAN:94746,"WORCESTER, MA US",1/1/1949,3/23/2020,0.466
OTH,Southwest Oregon Regional Airport,43.417,-124.246,17,North Bend,WBAN:24284,"NORTH BEND SOUTHWEST OREGON REGIONAL AIRPORT, OR US",5/1/1949,3/23/2020,0.451
OTZ,Ralph Wien Memorial Airport,66.885,-162.599,14,Kotzebue,WBAN:26616,"KOTZEBUE AIRPORT, AK",1/1/1945,3/23/2020,0
OWB,Owensboro Daviess County Airport,37.74,-87.167,407,Owensboro,WBAN:53803,"OWENSBORO DAVIESS CO REGIONAL AIRPORT, KY US",6/2/2005,3/23/2020,1.11
OXR,Oxnard Airport,34.201,-119.207,45,Oxnard,WBAN:93110,"OXNARD VENTURA CO AIRPORT, CA US",4/1/1944,3/23/2020,0.02
PAE,Snohomish County (Paine Field) Airport,47.906,-122.282,606,Everett,WBAN:24222,"EVERETT SNOHOMISH CO AIRPORT, WA US",1/1/2005,3/23/2020,0.236
PAH,Barkley Regional Airport,37.061,-88.774,410,Paducah,WBAN:03816,"PADUCAH BARKLEY REGIONAL AIRPORT, KY US",9/1/1949,3/23/2020,0.523
PBG,Plattsburgh International Airport,44.651,-73.468,234,Plattsburgh,WBAN:64776,"PLATTSBURGH INTERNATIONAL AIRPORT, NY US",6/18/2007,3/23/2020,0.153
PBI,Palm Beach International Airport,26.683,-80.096,19,West Palm Beach,WBAN:12844,"WEST PALM BEACH INTERNATIONAL AIRPORT, FL US",2/6/1943,3/23/2020,0.387
PDX,Portland International Airport,45.589,-122.598,31,Portland,WBAN:24229,"PORTLAND INTERNATIONAL AIRPORT, OR US",5/1/1936,3/23/2020,1.161
PGD,Charlotte County Airport,26.92,-81.991,26,Punta Gorda,WBAN:12812,"PUNTA GORDA CHARLOTTE CO AIRPORT, FL US",1/1/2005,3/23/2020,0.31
PGV,Pitt Greenville Airport,35.635,-77.385,26,Greenville,WBAN:13783,"GREENVILLE PITT GREENVILLE AIRPORT, NC US",1/1/2005,3/23/2020,0.239
PHF,Newport News Williamsburg International Airport,37.132,-76.493,42,Newport News,WBAN:93741,"NEWPORT NEWS INTERNATIONAL AIRPORT, VA US",1/1/2000,3/23/2020,0.009
PHL,Philadelphia International Airport,39.872,-75.241,36,Philadelphia,WBAN:13739,"PHILADELPHIA INTERNATIONAL AIRPORT, PA US",1/1/1941,3/23/2020,1.225
PHX,Phoenix Sky Harbor International Airport,33.434,-112.012,1135,Phoenix,WBAN:23183,"PHOENIX AIRPORT, AZ US",1/1/1948,3/23/2020,1.034
PIA,General Wayne A. Downing Peoria International Airport,40.664,-89.693,660,Peoria,WBAN:14842,"PEORIA INTERNATIONAL AIRPORT, IL US",1/1/1948,3/23/2020,0.862
PIB,Hattiesburg Laurel Regional Airport,31.467,-89.337,298,Hattiesburg/Laurel,WBAN:53808,"LAUREL HATTIESBURG PINE BELT REGIONAL AIRPORT, MS US",1/1/2005,3/23/2020,0.351
PIE,St Petersburg Clearwater International Airport,27.91,-82.687,11,St Petersburg-Clearwater,WBAN:12873,"ST PETERSBURG CLEARWATER INTERNATIONAL AIRPORT, FL US",1/1/2005,3/23/2020,0.079
PIH,Pocatello Regional Airport,42.91,-112.596,4452,Pocatello,WBAN:24156,"POCATELLO REGIONAL AIRPORT, ID US",1/1/1943,3/23/2020,2.328
PIR,Pierre Regional Airport,44.383,-100.286,1744,Pierre,WBAN:24025,"PIERRE REGIONAL AIRPORT, SD US",3/1/1944,3/23/2020,0.193
PIT,Pittsburgh International Airport,40.492,-80.233,1203,Pittsburgh,WBAN:94823,"PITTSBURGH ASOS, PA US",2/1/1945,3/23/2020,1.778
PLN,Pellston Regional Airport of Emmet County Airport,45.571,-84.797,721,Pellston,WBAN:14841,"PELLSTON REGIONAL AIRPORT, MI US",1/1/1948,3/23/2020,0.807
PMD,Palmdale Regional/USAF Plant 42 Airport,34.629,-118.085,2543,Palmdale,WBAN:23182,"PALMDALE AIRPORT, CA US",11/1/1948,3/23/2020,0.136
PNS,Pensacola International Airport,30.473,-87.187,121,Pensacola,WBAN:13899,"PENSACOLA REGIONAL AIRPORT, FL US",12/31/1948,3/23/2020,0.561
PPG,Pago Pago International Airport,-14.33, -170.71,3,American Samoa,WBAN:61705,"PAGO PAGO WEATHER SERVICE OFFICE AIRPORT, US",8/1/1945,3/29/2020,0
PQI,Presque Isle International Airport,46.689,-68.045,534,Presque Isle,WBAN:14604,"PRESQUE ISLE MUNICIPAL AIRPORT, ME US",11/1/1941,3/23/2020,0.737
PRC,Prescott Regional Airport - Ernest A. Love Field,34.654,-112.42,5045,Prescott,WBAN:23184,"PRESCOTT LOVE FIELD, AZ US",1/1/1948,3/23/2020,0.269
PSC,Tri Cities Airport,46.265,-119.119,410,Pasco,WBAN:24163,"PASCO TRI CITIES AIRPORT, WA US",4/1/1945,3/23/2020,0.258
PSG,Petersburg James A Johnson Airport,56.802,-132.945,111,Petersburg,WBAN:25329,"PETERSBURG 1, AK US",7/1/1948,3/23/2020,0.616
PSM,Portsmouth International at Pease Airport,43.078,-70.823,100,Portsmouth,WBAN:04743,"PORTSMOUTH PEASE AFB, NH US",4/25/2005,3/23/2020,0.785
PSP,Palm Springs International Airport,33.83,-116.507,477,Palm Springs,WBAN:93138,"PALM SPRINGS ASOS, CA US",1/1/2005,3/23/2020,0.373
PUB,Pueblo Memorial Airport,38.289,-104.497,4726,Pueblo,WBAN:93058,"PUEBLO MEMORIAL AIRPORT, CO US",10/1/1942,3/23/2020,0.167
PUW,Pullman Moscow Regional Airport,46.744,-117.11,2556,Pullman/Moscow,WBAN:94129,"PULLMAN MOSCOW REGIONAL AIRPORT, WA US",1/1/2005,3/23/2020,0.107
PVD,Theodore Francis Green State Airport,41.733,-71.42,55,Providence,WBAN:14765,"PROVIDENCE, RI US",8/1/1942,3/23/2020,1.563
PVU,Provo Municipal Airport,40.219,-111.723,4497,Provo,WBAN:24174,"PROVO AIRPORT, UT US",1/1/2005,3/23/2020,0.031
PWM,Portland International Jetport,43.646,-70.309,76,Portland,WBAN:14764,"PORTLAND JETPORT, ME US",1/1/1948,3/23/2020,0.558
RAP,Rapid City Regional Airport,44.045,-103.057,3204,Rapid City,WBAN:24090,"RAPID CITY REGIONAL AIRPORT, SD US",11/1/1950,3/23/2020,0.226
RCA,Ellsworth Air Force Base,44.145,-103.104,3276,Rapid City,WBAN:24006,"ELLSWORTH AFB, SD US",2/1/1939,3/23/2020,0.641
RDD,Redding Municipal Airport,40.509,-122.293,505,Redding,WBAN:24257,"REDDING MUNICIPAL AIRPORT, CA US",9/1/1944,3/23/2020,0.782
RDM,Roberts Field,44.254,-121.15,3080,Redmond,WBAN:24230,"REDMOND AIRPORT, OR US",1/1/1942,3/23/2020,0.704
RDU,Raleigh Durham International Airport,35.878,-78.787,435,Raleigh/Durham,WBAN:13722,"RALEIGH AIRPORT, NC US",11/1/1945,3/23/2020,1.652
RFD,Chicago Rockford International Airport,42.195,-89.097,742,Chicago/Rockford,WBAN:94822,"ROCKFORD GREATER ROCKFORD AIRPORT, IL US",3/1/1951,3/23/2020,0.418
RHI,Rhinelander Oneida County Airport,45.631,-89.467,1624,Rhinelander,WBAN:04803,"RHINELANDER ONEIDA CO AIRPORT, WI US",1/1/2005,3/23/2020,1.194
RIC,Richmond International Airport,37.505,-77.32,167,Richmond,WBAN:13740,"RICHMOND INTERNATIONAL AIRPORT, VA US",9/24/1942,3/23/2020,0.784
RIW,Riverton Regional Airport,43.064,-108.46,5525,Riverton,WBAN:24061,"RIVERTON REGIONAL AIRPORT, WY US",1/1/1973,3/23/2020,0.092
RKS,Southwest Wyoming Regional Airport,41.594,-109.065,6764,Rock Springs,WBAN:24027,"ROCK SPRINGS AIRPORT, WY US",1/1/1948,3/23/2020,1.007
RNO,Reno Tahoe International Airport,39.499,-119.768,4415,Reno,WBAN:23185,"RENO AIRPORT, NV US",1/5/1943,3/23/2020,1.709
ROA,Roanokeâ€“Blacksburg Regional Airport,37.326,-79.975,1175,Roanoke,WBAN:13741,"ROANOKE INTERNATIONAL AIRPORT, VA US",1/1/1948,3/23/2020,1.013
ROC,Greater Rochester International Airport,43.119,-77.672,559,Rochester,WBAN:14768,"ROCHESTER GREATER INTERNATIONAL, NY US",1/1/1948,3/23/2020,0.46
ROW,Roswell International Air Center Airport,33.302,-104.531,3671,Roswell,WBAN:23009,"ROSWELL INDUSTRIAL AIR PARK, NM US",7/13/1942,3/23/2020,2.2
RST,Rochester International Airport,43.908,-92.5,1317,Rochester,WBAN:14925,"ROCHESTER INTERNATIONAL AIRPORT, MN US",1/1/1948,3/23/2020,0.802
RSW,Southwest Florida International Airport,26.536,-81.755,30,Fort Myers,WBAN:12894,"FORT MYERS SW FLORIDA REGIONAL AIRPORT, FL US",1/1/2005,3/23/2020,0.012
SAF,Santa Fe Municipal Airport,35.617,-106.089,6348,Santa Fe,WBAN:23049,"SANTA FE CO MUNICIPAL AIRPORT, NM US",8/1/1946,3/23/2020,0.012
SAN,San Diego International Airport,32.734,-117.19,17,San Diego,WBAN:23188,"SAN DIEGO INTERNATIONAL AIRPORT, CA US",1/1/1942,3/23/2020,0.648
SAT,San Antonio International Airport,29.534,-98.47,809,San Antonio,WBAN:12921,"SAN ANTONIO INTERNATIONAL AIRPORT, TX US",8/14/1946,3/23/2020,1.766
SAV,Savannah Hilton Head International Airport,32.128,-81.202,50,Savannah,WBAN:03822,"SAVANNAH INTERNATIONAL AIRPORT, GA US",1/1/1948,3/23/2020,0.371
SBA,Santa Barbara Municipal Airport,34.426,-119.84,13,Santa Barbara,WBAN:23190,"SANTA BARBARA MUNICIPAL AIRPORT, CA US",11/1/1948,3/23/2020,0.231
SBN,South Bend Regional Airport,41.709,-86.317,799,South Bend,WBAN:14848,"SOUTH BEND AIRPORT, IN US",1/1/1948,3/23/2020,0.208
SBP,San Luis County Regional Airport,35.237,-120.642,212,San Luis Obispo,WBAN:93206,"SAN LUIS OBISPO MCCHESNEY FIELD, CA US",1/1/2005,3/23/2020,0.061
SBY,Salisbury Ocean City Wicomico Regional Airport,38.34,-75.51,52,Salisbury,WBAN:93720,"SALISBURY WICOMICO REGIONAL AIRPORT, MD US",1/1/1949,3/23/2020,0.299
SCC,Deadhorse Airport,70.195,-148.465,65,Deadhorse,WBAN:27406,"DEADHORSE, AK US",1/1/1973,3/23/2020,0
SCE,University Park Airport,40.849,-77.849,1239,State College,WBAN:54739,"UNIVERSITY PARK, PA US",1/1/2005,3/23/2020,0.139
SCK,Stockton Metropolitan Airport,37.894,-121.238,33,Stockton,WBAN:23237,"STOCKTON METROPOLITAN AIRPORT, CA US",1/3/1941,3/23/2020,1.203
SDF,Louisville Muhammad Ali International Airport,38.174,-85.736,501,Louisville,WBAN:93821,"LOUISVILLE INTERNATIONAL AIRPORT, KY US",1/1/1948,3/23/2020,0.834
SEA,Seattle Tacoma International Airport,47.449,-122.309,433,Seattle,WBAN:24233,"SEATTLE TACOMA INTERNATIONAL AIRPORT, WA US",1/1/1948,3/23/2020,0.627
SFB,Orlando Sanford International Airport,28.778,-81.238,55,Orlando,WBAN:12854,"ORLANDO SANFORD AIRPORT, FL US",4/1/1945,3/23/2020,0.58
SFO,San Francisco International Airport,37.619,-122.375,13,San Francisco,WBAN:23234,"SAN FRANCISCO INTERNATIONAL AIRPORT, CA US",1/1/1948,3/23/2020,0.913
SGF,Springfield Branson National Airport,37.246,-93.389,1268,Springfield,WBAN:13995,"SPRINGFIELD WEATHER SERVICE OFFICE AIRPORT, MO US",1/1/1948,3/23/2020,0.689
SGU,St George Municipal Airport,37.036,-113.51,2941,St George,WBAN:23186,"ST GEORGE MUNICIPAL AIRPORT, UT US",1/1/2005,3/23/2020,9.749
SHD,Shenandoah Valley Regional Airport,38.264,-78.896,1201,Staunton/Waynesboro/Harrisonburg,WBAN:93760,"STAUNTON, VA US",1/1/2005,3/23/2020,0.055
SHR,Sheridan County Airport,44.769,-106.98,4021,Sheridan,WBAN:24029,"SHERIDAN AIRPORT, WY US",1/1/1948,3/23/2020,0.888
SHV,Shreveport Regional Airport,32.447,-93.826,258,Shreveport,WBAN:13957,"SHREVEPORT REGIONAL AIRPORT, LA US",7/1/1948,3/23/2020,0.152
SIT,Sitka Rocky Gutierrez Airport,57.047,-135.362,21,Sitka,WBAN:25333,"SITKA AIRPORT, AK US",7/1/1948,3/23/2020,0.205
SJC,Norman Y. Mineta San Jose International Airport,37.363,-121.929,62,San Jose,WBAN:23293,"SAN JOSE, CA US",1/1/1951,3/23/2020,0.619
SJT,San Angelo Regional Mathis Field,31.358,-100.496,1919,San Angelo,WBAN:23034,"SAN ANGELO MATHIS FIELD, TX US",2/15/1948,3/23/2020,0.708
SJU,Luis Munoz Marin International Airport,18.432,-66.01,2,Puerto Rico,WBAN:11641,"SAN JUAN L M MARIN INTERNATIONAL AIRPORT, US",5/24/1955,3/30/2020,0
SKA,Fairchild Air Force Base,47.615,-117.656,2461,Spokane,WBAN:24114,"FAIRCHILD AFB, WA US",4/1/1940,3/23/2020,2.087
SLC,Salt Lake City International Airport,40.788,-111.978,4227,Salt Lake City,WBAN:24127,"SALT LAKE CITY INTERNATIONAL AIRPORT, UT US",11/1/1941,3/23/2020,1.317
SLE,Salem Municipal Airport/McNary Field,44.91,-123.003,214,Salem,WBAN:24232,"SALEM AIRPORT MCNARY FIELD, OR US",1/1/1948,3/23/2020,0.576
SLN,Salina Municipal Airport,38.791,-97.652,1288,Salina,WBAN:03919,"SALINA MUNICIPAL AIRPORT, KS US",1/1/1952,3/23/2020,1.014
SMF,Sacramento International Airport,38.695,-121.591,27,Sacramento,WBAN:93225,"SACRAMENTO METROPOLITAN AIRPORT, CA US",1/1/1973,3/23/2020,0.128
SMX,Santa Maria Pub/Capt G Allan Hancock Field,34.899,-120.457,261,Santa Maria,WBAN:23273,"SANTA MARIA PUBLIC AIRPORT, CA US",10/21/1954,3/23/2020,0.769
SNA,John Wayne Airport-Orange County Airport,33.676,-117.868,56,Santa Ana,WBAN:93184,"SANTA ANA JOHN WAYNE AIRPORT, CA US",6/17/1940,3/23/2020,0.468
SOP,Moore County Airport,35.237,-79.391,455,Pinehurst/Southern Pines,WBAN:03720,"MOORE CO AIRPORT, NC US",1/1/2005,3/23/2020,0.026
SPI,Abraham Lincoln Capital Airport,39.844,-89.678,598,Springfield,WBAN:93822,"SPRINGFIELD ABRAHAM LINCOLN CAPITAL AIRPORT, IL US",1/1/1948,3/23/2020,0.511
SPN,Saipan International Airport,15.116,145.71,65,Northern Mariana Islands,WBAN:41418,"SAIPAN INTERNATIONAL AIRPORT, US",1/1/2005,3/30/2020,0
SPS,Sheppard Air Force Base-Wichita Falls Municipal Airport,33.989,-98.492,1019,Wichita Falls,WBAN:13966,"WICHITA FALLS MUNICIPAL AIRPORT, TX US",4/13/1942,3/23/2020,1.156
SRQ,Sarasota Bradenton International Airport,27.395,-82.554,30,Sarasota/Bradenton,WBAN:12871,"SARASOTA BRADENTON AIRPORT, FL US",1/1/2005,3/23/2020,0.842
STC,St Cloud Regional Airport,45.547,-94.06,1031,St Cloud,WBAN:14926,"ST. CLOUD REGIONAL AIRPORT, MN US",1/1/1948,3/23/2020,0.794
STL,St Louis Lambert International Airport,38.749,-90.37,618,St Louis,WBAN:13994,"ST LOUIS LAMBERT INTERNATIONAL AIRPORT, MO US",1/1/1945,3/23/2020,0.499
STS,Charles M. Schulz Sonoma County Airport,38.509,-122.813,128,Santa Rosa,WBAN:23213,"SANTA ROSA SONOMA CO AIRPORT, CA US",1/1/2000,3/23/2020,0.627
STT,Cyril E. King Airport,18.336,-64.98,6,U.S. Virgin Islands,WBAN:11640,"CHARLOTTE AMALIE CYRIL E KING AIRPORT, US",1/1/1953,3/30/2020,0
STX,Henry E Rohlsen Airport,17.699,-64.812,18,U.S. Virgin Islands,WBAN:11624,"CHRISTIANSTED HAMILTON FIELD AIRPORT, US",9/1/1941,3/30/2020,0
SUN,Friedman Memorial Airport,43.504,-114.296,5318,Hailey,WBAN:94161,"HAILEY FRIEDMAN MEMORIAL AIRPORT, ID US",6/17/2005,3/23/2020,0.55
SUX,Sioux Gateway Airport/Brigadier General Bud Day Field,42.403,-96.384,1098,Sioux City,WBAN:14943,"SIOUX CITY AIRPORT, IA US",10/1/1942,3/23/2020,0.907
SWF,New York Stewart International Airport,41.504,-74.105,491,Newburgh,WBAN:14714,"STEWART FIELD, NY US",8/2/1942,3/23/2020,0.61
SWO,Stillwater Regional Airport,36.161,-97.086,1000,Stillwater,WBAN:03965,"STILLWATER REGIONAL AIRPORT, OK US",1/1/2005,3/23/2020,0.343
SYR,Syracuse Hancock International Airport,43.111,-76.106,421,Syracuse,WBAN:14771,"SYRACUSE HANCOCK INTERNATIONAL AIRPORT, NY US",10/1/1942,3/23/2020,0.179
TEX,Telluride Regional Airport,37.954,-107.908,9070,Telluride,WBAN:03011,"TELLURIDE REGIONAL AIRPORT, CO US",1/1/2005,3/23/2020,0.832
TLH,Tallahassee Regional Airport,30.396,-84.35,81,Tallahassee,WBAN:93805,"TALLAHASSEE REGIONAL AIRPORT, FL US",5/1/1942,3/23/2020,0.457
TOL,Toledo Express Airport,41.587,-83.808,683,Toledo,WBAN:94830,"TOLEDO EXPRESS AIRPORT, OH US",2/1/1955,3/23/2020,0.209
TPA,Tampa International Airport,27.976,-82.533,26,Tampa,WBAN:12842,"TAMPA INTERNATIONAL AIRPORT, FL US",8/1/1940,3/23/2020,1.716
TRI,Tri-Cities Regional TN/VA Airport,36.475,-82.407,1519,Bristol/Johnson/Kingsport,WBAN:13877,"BRISTOL AIRPORT, TN US",1/1/1948,3/23/2020,0.886
TTN,Trenton Mercer Airport,40.277,-74.813,213,Trenton,WBAN:14792,"TRENTON MERCER AIRPORT, NJ US",2/20/1945,3/23/2020,0.251
TUL,Tulsa International Airport,36.198,-95.888,677,Tulsa,WBAN:13968,"TULSA INTERNATIONAL AIRPORT, OK US",1/1/1947,3/23/2020,0.171
TUP,Tupelo Regional Airport,34.268,-88.77,346,Tupelo,WBAN:93862,"TUPELO REGIONAL AIRPORT, MS US",1/1/1973,3/23/2020,0.51
TUS,Tucson International Airport,32.116,-110.941,2643,Tucson,WBAN:23160,"TUCSON INTERNATIONAL AIRPORT, AZ US",6/1/1946,3/23/2020,2.162
TVC,Cherry Capital Airport,44.741,-85.582,624,Traverse City,WBAN:14850,"TRAVERSE CITY CHERRY CAPITAL AIRPORT, MI US",12/1/1948,3/23/2020,0.044
TWF,Joslin Field Magic Valley Regional Airport,42.482,-114.488,4154,Twin Falls,WBAN:94178,"TWIN FALLS SUN VALLEY REGIONAL AIRPORT, ID US",1/1/2005,3/23/2020,0.087
TXK,Texarkana Regional Webb Field,33.454,-93.991,390,Texarkana,WBAN:13977,"TEXARKANA WEBB FIELD, AR US",7/29/1946,3/23/2020,1.525
TYR,Tyler Pounds Regional Airport,32.354,-95.402,544,Tyler,WBAN:13972,"TYLER POUNDS FIELD, TX US",7/1/1948,3/23/2020,0.051
TYS,McGhee Tyson Airport,35.811,-83.994,981,Knoxville,WBAN:13891,"KNOXVILLE AIRPORT, TN US",1/1/1948,3/23/2020,1.082
UIN,Quincy Regional Baldwin Field,39.943,-91.195,768,Quincy,WBAN:93989,"QUINCY REGIONAL AIRPORT, IL US",12/1/1948,3/23/2020,0.727
USA,Concord-Padgett Regional Airport,35.388,-80.709,705,Concord,WBAN:63801,"CONCORD REGIONAL AIRPORT, NC US",1/1/2005,3/23/2020,0.235
UST,Northeast Florida Regional Airport,29.959,-81.34,10,St Augustine,WBAN:92814,"ST AUGUSTINE AIRPORT, FL US",1/1/2005,3/23/2020,0.033
UTM,Tunica Municipal Airport,34.681,-90.347,194,Tunica,WBAN:23903,"TUNICA MUNICIPAL AIRPORT, MS US",1/4/2005,3/23/2020,0.033
VCT,Victoria Regional Airport,28.853,-96.919,115,Victoria,WBAN:12912,"VICTORIA REGIONAL AIRPORT, TX US",4/11/1941,3/23/2020,0.809
VEL,Vernal Regional Airport,40.441,-109.51,5278,Vernal,WBAN:94030,"VERNAL MUNICIPAL AIRPORT, UT US",1/1/2005,3/23/2020,0.308
VIS,Visalia Municipal Airport,36.319,-119.393,295,Visalia,WBAN:93144,"VISALIA MUNICIPAL AIRPORT, CA US",1/1/2005,3/23/2020,0.68
VLD,Valdosta Regional Airport,30.782,-83.277,203,Valdosta,WBAN:93845,"VALDOSTA REGIONAL AIRPORT, GA US",1/1/1948,3/23/2020,0.064
VPS,Destin-Ft Walton Beach Airport,30.483,-86.525,87,Valparaiso,WBAN:13858,"VALPARAISO EGLIN AFB, FL US",9/10/1938,3/23/2020,0.801
WRG,Wrangell Airport,56.484,-132.37,49,Wrangell,WBAN:25338,"WRANGELL AIRPORT, AK US",2/24/2005,3/23/2020,1.611
WYS,Yellowstone Airport,44.688,-111.118,6649,West Yellowstone,WBAN:94163,"WEST YELLOWSTONE, MT US",6/7/2005,3/23/2020,0.53
XNA,Northwest Arkansas Regional Airport,36.282,-94.307,1287,Fayetteville/Springdale/Rogers,WBAN:53922,"FAYETTEVILLE SPRINGDALE NW AR REGL AIRPORT, AR US",1/1/2005,3/23/2020,0.646
XWA,Williston Basin International Airport,48.258,-103.749,2344,Williston,WBAN:94099,"WILLISTON AIRPORT, ND US",1/1/2020,3/23/2020,0.489
YAK,Yakutat Airport,59.503,-139.66,33,Yakutat,WBAN:25339,"YAKUTAT AIRPORT, AK US",5/1/1941,3/23/2020,1.186
YKM,Yakima Air Terminal McAllister Field,46.568,-120.544,1099,Yakima,WBAN:24243,"YAKIMA AIRPORT, WA US",1/1/1948,3/23/2020,0.098
YNG,Youngstown Warren Regional Airport,41.261,-80.679,1192,Youngstown/Warren,WBAN:14852,"YOUNGSTOWN WARREN REGIONAL AIRPORT, OH US",1/1/1948,3/23/2020,0.819
YUM,Yuma MCAS/Yuma International Airport,32.657,-114.606,213,Yuma,WBAN:03145,"YUMA MCAS, AZ US",1/27/1977,3/23/2020,1.267
