iata_code,airport_name,latitude_deg,longitude_deg,elevation_ft,municipality
OCA,Ocean Reef Club Airport,25.325399398804002,-80.274803161621,8.0,Key Largo
PQS,Pilot Station Airport,61.934601,-162.899994,305.0,Pilot Station
CSE,Crested Butte Airpark,38.851918,-106.92834099999999,8980.0,Crested Butte
JCY,LBJ Ranch Airport,30.251800537100006,-98.6224975586,1515.0,Johnson City
PMX,Metropolitan Airport,42.223300933800004,-72.31140136719998,418.0,Palmer
NUP,Nunapitchuk Airport,60.905591,-162.44045400000002,12.0,Nunapitchuk
ICY,Icy Bay Airport,59.96900177,-141.662002563,50.0,Icy Bay
KKK,Kalakaket Creek AS Airport,64.4166256967,-156.820392609,1598.0,Kalakaket Creek
MHS,Dunsmuir Muni-Mott Airport,41.263199,-122.272003,3258.0,Dunsmuir
NIR,Chase Field Industrial Airport,28.362444,-97.661917,190.0,Beeville
GCT,Grand Canyon Bar Ten Airstrip,36.259701,-113.231003,4100.0,Whitmore
LVD,Lime Village Airport,61.3591003418,-155.440002441,552.0,Lime Village
HGZ,Hog River Airport,66.21610260000001,-155.6690063,534.0,Hogatza
OTN,Ed-Air Airport,38.851398468,-87.49970245360001,426.0,Oaktown
TLF,Telida Airport,63.393901824951,-153.26899719238,650.0,Telida
BZT,Eagle Air Park,28.982200622559,-95.579696655273,15.0,Brazoria
BYW,Blakely Island Airport,48.578998565700005,-122.82599639899999,66.0,Blakely Island
DRF,Drift River Airport,60.5889015198,-152.162002563,30.0,Kenai
BDF,Rinkenberger Restricted Landing Area,41.2308998108,-89.61569976810001,808.0,Bradford
VRS,Roy Otten Memorial Airfield,38.427799224854,-92.875198364258,1030.0,Versailles
ATT,Atmautluak Airport,60.866699,-162.272995,17.0,Atmautluak
LIV,Livengood Camp Airport,65.467,-148.6534,425.0,Livengood
PDB,Pedro Bay Airport,59.789600372299994,-154.12399292,45.0,Pedro Bay
KOZ,Ouzinkie Airport,57.925362,-152.496715,55.0,Ouzinkie
TNK,Tununak Airport,60.575500488281,-165.27200317383,14.0,Tununak
MNT,Minto Al Wright Airport,65.1437,-149.369995,460.0,Minto
WKK,Aleknagik / New Airport,59.2826004028,-158.617996216,66.0,Aleknagik
NNK,Naknek Airport,58.732898712158004,-157.02000427246,70.0,Naknek
BCS,Southern Seaplane Airport,29.866100311300002,-90.02220153809999,,Belle Chasse
BWL,Earl Henry Airport,36.7958984375,-97.31700134280001,1054.0,Blackwell
CWS,Center Island Airport,48.4901008606,-122.83200073200001,115.0,Center Island
TEK,Tatitlek Airport,60.871449,-146.690297,62.0,Tatitlek
DUF,Pine Island Airport,36.2535018921,-75.7884979248,16.0,Corolla
SSW,Stuart Island Airpark,48.672901153564,-123.17600250244,10.0,Stuart Island
FOB,Fort Bragg Airport,39.4743003845,-123.79599762,71.0,Fort Bragg
AXB,Maxson Airfield,44.312002,-75.90034,340.0,Alexandria Bay
REE,Reese Airpark,33.590301513671996,-102.03700256348,3338.0,Lubbock
WDN,Waldron Airstrip,48.7118,-123.01799799999999,140.0,East Sound
CHU,Chuathbaluk Airport,61.579102,-159.216003,244.0,Chuathbaluk
UGS,Ugashik Airport,57.5279006958,-157.399002075,25.0,Ugashik
MXG,Marlboro Airport,42.343201,-71.509002,285.0,Marlboro
KLL,Levelock Airport,59.1281013489,-156.85899353,39.0,Levelock
WTL,Tuntutuliak Airport,60.335300445600005,-162.667007446,16.0,Tuntutuliak
TWA,Twin Hills Airport,59.07559967040999,-160.27299499512,82.0,Twin Hills
KCQ,Chignik Lake Airport,56.25500106810001,-158.774993896,50.0,Chignik Lake
CEX,Chena Hot Springs Airport,65.0518035889,-146.04699707,1195.0,Chena Hot Springs
SOL,Solomon State Field,64.5605,-164.4457,25.0,Solomon
HED,Herendeen Bay Airport,55.801399231000005,-160.899002075,20.0,Herendeen Bay
TWE,Taylor Airport,65.6792984009,-164.798995972,440.0,Taylor
LNI,Lonely Air Station,70.91069794,-153.2420044,17.0,Lonely
CDL,Candle 2 Airport,65.907699585,-161.92599487299998,15.0,Candle
BSZ,Bartletts Airport,58.2162017822,-157.352005005,50.0,Egegik
BSW,Boswell Bay Airport,60.4230995178,-146.145996094,230.0,Boswell Bay
TGE,Sharpe Field,32.4919013977,-85.77559661869999,253.0,Tuskegee
AQY,Girdwood Airport,60.966099,-149.12600700000002,150.0,Girdwood
BKG,Branson Airport,36.532082,-93.200544,1302.0,Branson
ILL,Willmar Municipal -John L Rice Field,45.11769867,-95.13040161,1126.0,Willmar
BOK,Brookings Airport,42.0746,-124.290001,459.0,Brookings
BYA,Boundary Airport,64.0783004761,-141.113006592,2940.0,Boundary
CHP,Circle Hot Springs Airport,65.485496521,-144.61099243200002,956.0,Circle Hot Springs
CKD,Crooked Creek Airport,61.867900848400005,-158.13499450700002,178.0,Crooked Creek
CKR,Crane Island Airstrip,48.5978,-122.9979,108.0,Crane Island
CKU,Cordova Municipal Airport,60.5438995361,-145.727005005,12.0,Cordova
CKX,Chicken Airport,64.0712966919,-141.95199585,1640.0,Chicken
HLI,Hollister Municipal Airport,36.8932991028,-121.41000366200001,230.0,Hollister
CXC,Chitina Airport,61.582901001,-144.427001953,556.0,Chitina
CZK,Cascade Locks State Airport,45.6768989563,-121.87899780299999,151.0,Cascade Locks
CZN,Chisana Airport,62.071201324499995,-142.04800415,3318.0,Chisana
CZO,Chistochina Airport,62.5634994507,-144.66900634799998,1850.0,Chistochina
IUA,Canandaigua Airport,42.908902000000005,-77.325226,814.0,Ontario County IDA
DJN,Delta Junction Airport,64.0503997803,-145.716995239,1150.0,Delta Junction
DCK,Dahl Creek Airport,66.9432983398,-156.904998779,260.0,Dahl Creek
RGR,Ranger Municipal Airport,32.452598571799996,-98.68280029299999,1470.0,Ranger
FLT,Flat Airport,62.4525985718,-157.988998413,309.0,Flat
GAB,Gabbs Airport,38.92409896850001,-117.958999634,4700.0,Gabbs
GFD,Pope Field,39.7902984619,-85.7360992432,895.0,Greenfield
GNU,Goodnews Airport,59.117401123,-161.57699585,15.0,Goodnews
GMT,Granite Mountain Air Station,65.40209961,-161.28100590000003,1313.0,Granite Mountain
GVE,Gordonsville Municipal Airport,38.15599823,-78.16580200199999,454.0,Gordonsville
HAY,Haycock Airport,65.20099639889999,-161.156997681,175.0,Haycock
HPV,Princeville Airport,22.2091999054,-159.445999146,344.0,Hanalei
HKB,Healy Lake Airport,63.9958,-144.6926,1180.0,Healy Lake
HNE,Tahneta Pass Airport,61.9014015198,-147.304000854,2960.0,Tahneta Pass Lodge
JLA,Quartz Creek Airport,60.48270034789999,-149.718994141,450.0,Cooper Landing
AMK,Animas Air Park,37.2032012939,-107.869003296,6684.0,Durango
BDX,Broadus Airport,45.47249985,-105.4540024,3280.0,Broadus
EUE,Eureka Airport,39.6041984558,-116.004997253,5954.0,Eureka
KPT,Jackpot Airport/Hayden Field,41.97600173949999,-114.657997131,5213.0,Jackpot
RLA,Rolla Downtown Airport,37.93569946289063,-91.8134994506836,987.0,Rolla
FID,Elizabeth Field,41.25130081179999,-72.0316009521,9.0,Fishers Island
HUD,Humboldt Municipal Airport,42.7360992432,-94.2452011108,1093.0,Humboldt
TWD,Jefferson County International Airport,48.053798675500005,-122.81099700899999,108.0,Port Townsend
MVM,Kayenta Airport,36.716444,-110.228444,5688.0,Kayenta
HCC,Columbia County Airport,42.2913017273,-73.7102966309,198.0,Hudson
AHD,Ardmore Downtown Executive Airport,34.1469993591,-97.1227035522,844.0,Ardmore
GCW,Grand Canyon West Airport,35.990398407,-113.816001892,4825.0,Peach Springs
CKE,Lampson Field,38.990600585900005,-122.90100097700001,1379.0,Lakeport
ROF,Montague-Yreka Rohrer Field,41.7304000854,-122.54599762,2527.0,Montague
CNE,Fremont County Airport,38.4280014038,-105.10600280799999,5439.0,Cañon City
COP,Cooperstown-Westville Airport,42.6291999817,-74.89099884030001,1260.0,Cooperstown
CIL,Council Airport,64.89790344240001,-163.70300293,85.0,Council
IRB,Iraan Municipal Airport,30.905700683600003,-101.89199829100001,2200.0,Iraan
GNF,Gansner Field,39.943902,-120.945,3415.0,Quincy
CHZ,Chiloquin State Airport,42.579440493,-121.87906265299999,4217.0,Chiloquin
LTW,St. Mary's County Regional Airport,38.3153991699,-76.5501022339,142.0,Leonardtown
AHF,Arapahoe Municipal Airport,40.3395004272,-99.90650177,2270.0,Arapahoe
PCT,Princeton Airport,40.3992004395,-74.6588973999,128.0,Princeton/Rocky Hill
CTO,Calverton Executive Airpark,40.9151000977,-72.7919006348,75.0,Calverton
NRI,Grand Lake Regional Airport,36.577598571777,-94.86190032959,792.0,Afton
GTP,Grants Pass Airport,42.510101,-123.38799999999999,1126.0,Grants Pass
NLE,Jerry Tyler Memorial Airport,41.835899353027,-86.225196838379,750.0,Niles
GCD,Grand Coulee Dam Airport,47.922000885,-119.083000183,1588.0,Electric City
VLE,Valle Airport,35.65060043335,-112.14800262451,5999.0,Grand Canyon
FPY,Perry-Foley Airport,30.0692997,-83.58059692,44.0,Perry
NTJ,Manti-Ephraim Airport,39.32910156,-111.6149979,5500.0,Manti
SBO,Salina Gunnison Airport,39.0290985107,-111.83799743700001,5159.0,Salina
JVI,Central Jersey Regional Airport,40.5243988037,-74.59839630130001,86.0,Manville
UCE,Eunice Airport,30.466299057007,-92.423797607422,42.0,Eunice
GOL,Gold Beach Municipal Airport,42.41339874,-124.42400359999999,20.0,Gold Beach
KKT,Kentland Municipal Airport,40.758701324499995,-87.42819976810001,698.0,Kentland
PRW,Prentice Airport,45.542999,-90.279297,1578.0,Prentice
EGP,Maverick County Memorial International Airport,28.85720062,-100.512001,887.0,Eagle Pass
BLD,Boulder City Municipal Airport,35.947497999999996,-114.861,2201.0,Boulder City
MFH,Mesquite Airport,36.83499908,-114.0550003,1978.0,Mesquite
ECA,Iosco County Airport,44.312801,-83.422302,606.0,East Tawas
FMU,Florence Municipal Airport,43.98279953,-124.111000061,51.0,Florence
OTS,Anacortes Airport,48.498999999999995,-122.662003,241.0,Anacortes
ROL,Roosevelt Municipal Airport,40.278301,-110.05100300000001,5172.0,Roosevelt
CTK,Canton Municipal Airport,43.308899,-96.570999,1290.0,Canton
WPO,North Fork Valley Airport,38.831699371300004,-107.64600372299999,5798.0,Paonia
ATE,Antlers Municipal Airport,34.1926002502,-95.6499023438,575.0,Antlers
QWG,Wilgrove Air Park,35.2137985229,-80.67009735110001,799.0,Charlotte
ASQ,Austin Airport,39.467998,-117.195,5730.0,Austin
AAF,Apalachicola Regional Airport,29.72750092,-85.02749634,20.0,Apalachicola
ABE,Lehigh Valley International Airport,40.652099609375,-75.44080352783203,393.0,Allentown
ABI,Abilene Regional Airport,32.4113006592,-99.68190002440001,1791.0,Abilene
ABQ,Albuquerque International Sunport,35.040199,-106.609001,5355.0,Albuquerque
ABR,Aberdeen Regional Airport,45.44910049438477,-98.42179870605469,1302.0,Aberdeen
ABY,Southwest Georgia Regional Airport,31.535499572753906,-84.19450378417969,197.0,Albany
ACB,Antrim County Airport,44.988602,-85.198402,623.0,Bellaire
ACK,Nantucket Memorial Airport,41.25310135,-70.06020355,47.0,Nantucket
ACT,Waco Regional Airport,31.61129951477051,-97.23049926757812,516.0,Waco
ACV,California Redwood Coast-Humboldt County Airport,40.978101,-124.109,221.0,Arcata/Eureka
ACY,Atlantic City International Airport,39.45759963989258,-74.57720184326172,75.0,Atlantic City
ADG,Lenawee County Airport,41.8676986694,-84.07730102539998,798.0,Adrian
ADT,Ada Regional Airport,34.804297999999996,-96.67130300000001,1016.0,Ada
ADM,Ardmore Municipal Airport,34.30301,-97.01963420000001,777.0,Ardmore
ADS,Addison Airport,32.9686012268,-96.8364028931,644.0,Dallas
ADW,Joint Base Andrews,38.810798999999996,-76.866997,280.0,Camp Springs
AEL,Albert Lea Municipal Airport,43.68149948,-93.36720276,1260.0,Albert Lea
AEX,Alexandria International Airport,31.32740020751953,-92.54979705810548,89.0,Alexandria
AFF,USAF Academy Airfield,38.96969986,-104.81300350000001,6572.0,Colorado Springs
WSG,Washington County Airport,40.1365013123,-80.29019927979999,1184.0,Washington
AFN,Jaffrey Airport Silver Ranch Airport,42.80509948730001,-72.0029983521,1040.0,Jaffrey
AFO,Afton Municipal Airport,42.711200714099995,-110.94200134299999,6221.0,Afton
AFW,Fort Worth Alliance Airport,32.9875984192,-97.3188018799,722.0,Fort Worth
AGC,Allegheny County Airport,40.354400634765625,-79.9301986694336,1252.0,Pittsburgh
AGO,Ralph C Weiser Field,33.228001,-93.21700200000001,319.0,Magnolia
AGS,Augusta Regional At Bush Field,33.36989974975586,-81.9645004272461,144.0,Augusta
AHC,Amedee Army Air Field,40.26620102,-120.15299990000001,4012.0,Herlong
AHH,Amery Municipal Airport,45.281101226800004,-92.37539672850001,1088.0,Amery
AHN,Athens Ben Epps Airport,33.94860076904297,-83.32630157470703,808.0,Athens
AIA,Alliance Municipal Airport,42.0531997681,-102.804000854,3931.0,Alliance
AID,Anderson Municipal Darlington Field,40.10860061649999,-85.6129989624,919.0,Anderson
AIK,Aiken Regional Airport,33.649399,-81.684998,528.0,Aiken
AIO,Atlantic Municipal Airport,41.40729904,-95.04689789,1165.0,Atlantic
AIV,George Downer Airport,33.106499,-88.1978,150.0,Aliceville
AIZ,Lee C Fine Memorial Airport,38.0960006714,-92.54949951170002,869.0,Kaiser Lake Ozark
AKO,Colorado Plains Regional Airport,40.1755981445,-103.22200012200001,4714.0,Akron
AKC,Akron Fulton International Airport,41.0374984741,-81.46690368649999,1067.0,Akron
ALB,Albany International Airport,42.74829864501953,-73.80169677734375,285.0,Albany
ALI,Alice International Airport,27.740900039699998,-98.02690124510002,178.0,Alice
ALM,Alamogordo White Sands Regional Airport,32.839900970500004,-105.990997314,4200.0,Alamogordo
ALN,St Louis Regional Airport,38.89030075069999,-90.04599761959999,544.0,Alton/St Louis
ALO,Waterloo Regional Airport,42.55709838867188,-92.40029907226562,873.0,Waterloo
ALS,San Luis Valley Regional Bergman Field,37.434898,-105.866997,7539.0,Alamosa
ALW,Walla Walla Regional Airport,46.09489822,-118.288002,1194.0,Walla Walla
ALX,Thomas C Russell Field,32.914699554399995,-85.96299743649999,686.0,Alexander City
AMA,Rick Husband Amarillo International Airport,35.219398,-101.706001,3607.0,Amarillo
AMN,Gratiot Community Airport,43.322101593,-84.68800354,754.0,Alma
AMW,Ames Municipal Airport,41.992001,-93.621803,956.0,Ames
ANB,Anniston Regional Airport,33.5882,-85.8581,612.0,Anniston
AND,Anderson Regional Airport,34.4945983887,-82.70939636230001,782.0,Anderson
SLT,Salida Airport Harriett Alexander Field,38.5383,-106.04900400000001,7523.0,Salida
ANP,Lee Airport,38.942902000000004,-76.568398,34.0,Annapolis
ANQ,Tri State Steuben County Airport,41.639702,-85.083504,995.0,Angola
ANW,Ainsworth Regional Airport,42.579201,-99.992995,2589.0,Ainsworth
ANY,Anthony Municipal Airport,37.158501,-98.07959699999999,1340.0,Anthony
AOH,Lima Allen County Airport,40.706902,-84.026703,975.0,Lima
AOO,Altoona Blair County Airport,40.29639816,-78.31999969,1503.0,Altoona
APA,Centennial Airport,39.57009888,-104.84899899999999,5885.0,Denver
APC,Napa County Airport,38.2132,-122.280998,35.0,Napa
APF,Naples Municipal Airport,26.1525993347,-81.7752990723,8.0,Naples
APG,Phillips Army Air Field,39.466202,-76.1688,57.0,Aberdeen Proving Grounds(Aberdeen)
APH,A P Hill AAF (Fort A P Hill) Airport,38.068902,-77.318298,220.0,Fort A. P. Hill
APN,Alpena County Regional Airport,45.07809829999999,-83.56030273,690.0,Alpena
APT,Marion County Brown Field,35.060699,-85.585297,641.0,Jasper
APV,Apple Valley Airport,34.575298309299995,-117.18599700899999,3062.0,Apple Valley
ARA,Acadiana Regional Airport,30.0378,-91.883904,24.0,New Iberia
ARB,Ann Arbor Municipal Airport,42.2229995728,-83.74559783939999,839.0,Ann Arbor
ARG,Walnut Ridge Regional Airport,36.124666999999995,-90.925111,279.0,Walnut Ridge
WHT,Wharton Regional Airport,29.254299163800006,-96.15440368649999,100.0,Wharton
AUZ,Aurora Municipal Airport,41.771900177,-88.47570037839998,712.0,Chicago/Aurora
ART,Watertown International Airport,43.99190139770508,-76.02169799804688,325.0,Watertown
ARV,Lakeland-Noble F. Lee Memorial field,45.92789841,-89.73090363,1629.0,Minocqua-Woodruff
BFT,Beaufort County Airport,32.4122009277,-80.6343994141,10.0,Beaufort
ASE,Aspen-Pitkin Co/Sardy Field,39.22320175,-106.8690033,7820.0,Aspen
SPZ,Springdale Municipal Airport,36.176399231,-94.11930084229999,1353.0,Springdale
ASH,Boire Field,42.781700134299996,-71.51480102539998,199.0,Nashua
ASL,Harrison County Airport,32.5205001831,-94.30780029299999,357.0,Marshall
ASN,Talladega Municipal Airport,33.569900512699995,-86.05090332030001,529.0,Talladega
AST,Astoria Regional Airport,46.158000946,-123.87899780299999,15.0,Astoria
ASX,John F Kennedy Memorial Airport,46.54850006,-90.91899872,827.0,Ashland
ASY,Ashley Municipal Airport,46.0238990784,-99.3526000977,2032.0,Ashley
ATL,Hartsfield Jackson Atlanta International Airport,33.6367,-84.428101,1026.0,Atlanta
ATS,Artesia Municipal Airport,32.8525009155,-104.46800231899999,3541.0,Artesia
ATW,Appleton International Airport,44.258098602299995,-88.51909637450001,918.0,Appleton
ATY,Watertown Regional Airport,44.91400146,-97.15470123,1749.0,Watertown
AUG,Augusta State Airport,44.320598602299995,-69.7973022461,352.0,Augusta
AUM,Austin Municipal Airport,43.66500092,-92.93340302,1234.0,Austin
AUN,Auburn Municipal Airport,38.95479965,-121.0820007,1539.0,Auburn
AUO,Auburn University Regional Airport,32.615101,-85.433998,777.0,Auburn
AUS,Austin Bergstrom International Airport,30.194499969482425,-97.6698989868164,542.0,Austin
AUW,Wausau Downtown Airport,44.9262008667,-89.62660217290001,1201.0,Wausau
AVL,Asheville Regional Airport,35.43619918823242,-82.54180145263672,2165.0,Asheville
AVO,Avon Park Executive Airport,27.59119987,-81.52780151,160.0,Avon Park
AVP,Wilkes Barre Scranton International Airport,41.338500976599995,-75.72339630130001,962.0,Wilkes-Barre/Scranton
AVW,Marana Regional Airport,32.4095993042,-111.21800231899999,2031.0,Tucson
AVX,Catalina Airport,33.4049,-118.416,1602.0,Avalon
AWM,West Memphis Municipal Airport,35.135101318400004,-90.2343978882,212.0,West Memphis
AXG,Algona Municipal Airport,43.0778999329,-94.27200317379999,1219.0,Algona
AXN,Chandler Field,45.866298675500005,-95.3946990967,1425.0,Alexandria
AXS,Altus Quartz Mountain Regional Airport,34.697952,-99.3385,1433.0,Altus
AXV,Neil Armstrong Airport,40.49340057,-84.29889679,913.0,Wapakoneta
AXX,Angel Fire Airport,36.422000885,-105.290000916,8380.0,Angel Fire
AYS,Waycross Ware County Airport,31.249099731399998,-82.39550018310001,142.0,Waycross
TUH,Arnold Air Force Base,35.39260101,-86.08580017,1067.0,Tullahoma
AZO,Kalamazoo Battle Creek International Airport,42.234901428222656,-85.5521011352539,874.0,Kalamazoo
BAB,Beale Air Force Base,39.136100769,-121.43699646,113.0,Marysville
BAD,Barksdale Air Force Base,32.5018005371,-93.6626968384,166.0,Bossier City
BAF,Westfield-Barnes Regional Airport,42.157799,-72.715599,271.0,Westfield/Springfield
CLU,Columbus Municipal Airport,39.2619018555,-85.8963012695,656.0,Columbus
BAM,Battle Mountain Airport,40.598999023400005,-116.874000549,4532.0,Battle Mountain
BBB,Benson Municipal Airport,45.331901550299996,-95.6505966187,1039.0,Benson
BBD,Curtis Field,31.179300308200002,-99.32389831540002,1827.0,Brady
BTN,Marlboro County Jetport H.E. Avent Field,34.62170029,-79.73439789,147.0,Bennettsville
BBW,Broken Bow Municipal Airport,41.4365005493,-99.64219665530001,2547.0,Broken Bow
BCB,Virginia Tech Montgomery Executive Airport,37.207599639899996,-80.4077987671,2132.0,Blacksburg
BCE,Bryce Canyon Airport,37.706401825,-112.144996643,7590.0,Bryce Canyon
BCT,Boca Raton Airport,26.3784999847,-80.1076965332,13.0,Boca Raton
BDE,Baudette International Airport,48.7284011841,-94.61219787600001,1086.0,Baudette
BDG,Blanding Municipal Airport,37.58330154,-109.4830017,5868.0,Blanding
BDL,Bradley International Airport,41.9388999939,-72.68319702149999,173.0,Hartford
BDR,Igor I Sikorsky Memorial Airport,41.16350173950195,-73.1261978149414,9.0,Bridgeport
WBU,Boulder Municipal Airport,40.039398193400004,-105.225997925,5288.0,Boulder
BEC,Beech Factory Airport,37.6944999695,-97.2149963379,1408.0,Wichita
BED,Laurence G Hanscom Field,42.47000122,-71.28900146,133.0,Bedford
BEH,Southwest Michigan Regional Airport,42.128601074200006,-86.4284973145,643.0,Benton Harbor
BFD,Bradford Regional Airport,41.8031005859375,-78.64009857177734,2143.0,Bradford
BFF,Western Neb. Rgnl/William B. Heilig Airport,41.87400055,-103.5960007,3967.0,Scottsbluff
BFI,Boeing Field King County International Airport,47.52999877929688,-122.302001953125,21.0,Seattle
BFL,Meadows Field,35.43360138,-119.0569992,510.0,Bakersfield
BFM,Mobile Downtown Airport,30.626800537100006,-88.06809997559998,26.0,Mobile
BFR,Virgil I Grissom Municipal Airport,38.84000015,-86.44539642,727.0,Bedford
BGD,Hutchinson County Airport,35.70090103149999,-101.39399719200001,3055.0,Borger
BGE,Decatur County Industrial Air Park,30.971500399999996,-84.63739777,141.0,Bainbridge
BGM,Greater Binghamton/Edwin A Link field,42.20869827,-75.97979736,1636.0,Binghamton
BGR,Bangor International Airport,44.80739974975586,-68.82810211181639,192.0,Bangor
BHB,Hancock County-Bar Harbor Airport,44.45000076,-68.36150359999999,83.0,Bar Harbor
BHM,Birmingham-Shuttlesworth International Airport,33.56290054,-86.75350189,650.0,Birmingham
BID,Block Island State Airport,41.1680984497,-71.577796936,108.0,Block Island
BIE,Beatrice Municipal Airport,40.3013000488,-96.75409698490002,1324.0,Beatrice
BIF,Biggs Army Air Field (Fort Bliss),31.84950066,-106.3799973,3946.0,Fort Bliss/El Paso
BIH,Eastern Sierra Regional Airport,37.373100280799996,-118.36399841299999,4124.0,Bishop
BIL,Billings Logan International Airport,45.807701110839844,-108.54299926757812,3652.0,Billings
BIS,Bismarck Municipal Airport,46.77270126342773,-100.74600219726562,1661.0,Bismarck
BIX,Keesler Air Force Base,30.4104003906,-88.92440032959999,33.0,Biloxi
BJC,Rocky Mountain Metropolitan Airport,39.90879822,-105.11699679999998,5673.0,Denver
BJI,Bemidji Regional Airport,47.50939941,-94.93370056,1391.0,Bemidji
BJJ,Wayne County Airport,40.8748016357,-81.88829803470001,1136.0,Wooster
BKD,Stephens County Airport,32.71900177,-98.8909988403,1284.0,Breckenridge
BKE,Baker City Municipal Airport,44.8372993469,-117.808998108,3373.0,Baker City
BFK,Buckley Air Force Base,39.701698303200004,-104.75199890100001,5662.0,Aurora
BKL,Burke Lakefront Airport,41.51750183105469,-81.68329620361328,583.0,Cleveland
BKT,Allen C Perkinson Blackstone Army Air Field,37.0741996765,-77.9574966431,439.0,Blackstone
BKW,Raleigh County Memorial Airport,37.787300109899995,-81.1241989136,2504.0,Beckley
BKX,Brookings Regional Airport,44.304798,-96.816902,1648.0,Brookings
BLF,Mercer County Airport,37.295799255371094,-81.20770263671875,2857.0,Bluefield
BLH,Blythe Airport,33.6192016602,-114.717002869,399.0,Blythe
BLI,Bellingham International Airport,48.79280090332031,-122.53800201416016,170.0,Bellingham
BLM,Monmouth Executive Airport,40.18690109,-74.12490082,153.0,Belmar/Farmingdale
BLU,Blue Canyon Nyack Airport,39.2750015259,-120.709999084,5284.0,Emigrant Gap
BLV,Scott AFB/Midamerica Airport,38.5452,-89.835197,459.0,Belleville
BMC,Brigham City Regional Airport,41.552399,-112.061996,4229.0,Brigham City
BMG,Monroe County Airport,39.14599990844727,-86.61669921875,846.0,Bloomington
BMI,Central Illinois Regional Airport at Bloomington-Normal,40.47710037,-88.91590118,871.0,Bloomington/Normal
BML,Berlin Regional Airport,44.57540131,-71.17590332,1161.0,Berlin
BMT,Beaumont Municipal Airport,30.070699691799998,-94.21579742430002,32.0,Beaumont
BNA,Nashville International Airport,36.1245002746582,-86.6781997680664,599.0,Nashville
BNG,Banning Municipal Airport,33.923099517800004,-116.850997925,2219.0,Banning
BNL,Barnwell Regional Airport,33.25780106,-81.38829803,246.0,Barnwell
BNO,Burns Municipal Airport,43.5918998718,-118.955001831,4148.0,Burns
BNW,Boone Municipal Airport,42.0495986938,-93.8476028442,1160.0,Boone
BOI,Boise Air Terminal/Gowen Field,43.5644,-116.223,2871.0,Boise
BOS,General Edward Lawrence Logan International Airport,42.36429977,-71.00520325,20.0,Boston
BOW,Bartow Executive Airport,27.943399,-81.783401,125.0,Bartow
HCA,Big Spring Mc Mahon-Wrinkle Airport,32.212601,-101.522003,2573.0,Big Spring
BPI,Miley Memorial Field,42.58509827,-110.1110001,6990.0,Big Piney
WMH,Ozark Regional Airport,36.3689002991,-92.4704971313,928.0,Mountain Home
BPT,Southeast Texas Regional Airport,29.9507999420166,-94.02069854736328,15.0,Beaumont/Port Arthur
BQK,Brunswick Golden Isles Airport,31.2588005065918,-81.46649932861328,26.0,Brunswick
BRD,Brainerd Lakes Regional Airport,46.39830017,-94.13809967,1232.0,Brainerd
BRL,Southeast Iowa Regional Airport,40.783199310302734,-91.12550354003906,698.0,Burlington
BRO,Brownsville South Padre Island International Airport,25.90679931640625,-97.4259033203125,22.0,Brownsville
BRY,Samuels Field,37.8143005371,-85.49960327149999,669.0,Bardstown
BTF,Skypark Airport,40.8694000244,-111.92700195299999,4234.0,Bountiful
BTL,W K Kellogg Airport,42.3073005676,-85.25150299069999,952.0,Battle Creek
BTM,Bert Mooney Airport,45.95479965209961,-112.49700164794922,5550.0,Butte
TTO,Britton Municipal Airport,45.815200805664,-97.74310302734399,1318.0,Britton
BTP,Pittsburgh/Butler Regional Airport,40.776901,-79.949699,1248.0,Butler
BTR,Baton Rouge Metropolitan Airport,30.533199,-91.149597,70.0,Baton Rouge
BTV,Burlington International Airport,44.471900939899996,-73.15329742429998,335.0,Burlington
BTY,Beatty Airport,36.8610992432,-116.78700256299999,3170.0,Beatty
BUB,Cram Field,41.776699066199996,-99.14969635010002,2182.0,Burwell
BUF,Buffalo Niagara International Airport,42.94049835,-78.73220062,728.0,Buffalo
BUM,Butler Memorial Airport,38.2897987366,-94.34010314940001,892.0,Butler
BUR,Bob Hope Airport,34.200698852539055,-118.35900115966795,778.0,Burbank
BFP,Beaver County Airport,40.7724990845,-80.39140319820001,1253.0,Beaver Falls
BVO,Bartlesville Municipal Airport,36.76250076,-96.01119995,711.0,Bartlesville
MVW,Skagit Regional Airport,48.470901489300005,-122.42099762,144.0,Burlington/Mount Vernon
BVX,Batesville Regional Airport,35.7262001,-91.64730072,465.0,Batesville
BVY,Beverly Municipal Airport,42.5842018127,-70.91649627689999,107.0,Beverly
BWC,Brawley Municipal Airport,32.99290085,-115.5169983,-128.0,Brawley
BWD,Brownwood Regional Airport,31.793600082399998,-98.9564971924,1387.0,Brownwood
BWG,Bowling Green Warren County Regional Airport,36.9645004272,-86.41970062259999,547.0,Bowling Green
BWI,Baltimore/Washington International Thurgood Marshall Airport,39.1754,-76.668297,146.0,Baltimore
WAH,Harry Stern Airport,46.2440986633,-96.6073989868,968.0,Wahpeton
BWM,Bowman Regional Airport,46.1655193,-103.30075,2965.0,Bowman
BXA,George R Carr Memorial Air Field,30.8136997223,-89.86499786379999,119.0,Bogalusa
BXK,Buckeye Municipal Airport,33.42039871,-112.685997,1033.0,Buckeye
BYG,Johnson County Airport,44.3810997009,-106.72200012200001,4968.0,Buffalo
BYH,Arkansas International Airport,35.9642982483,-89.94400024410002,254.0,Blytheville
BYI,Burley Municipal Airport,42.5425987244,-113.77200317399999,4150.0,Burley
BYS,Bicycle Lake Army Air Field,35.2804985046,-116.629997253,2350.0,Fort Irwin/Barstow
BBC,Bay City Municipal Airport,28.9733009338,-95.8635025024,45.0,Bay City
BZN,Gallatin Field,45.77750015,-111.15299990000001,4473.0,Bozeman
XES,Grand Geneva Resort Airport,42.614899,-88.38960300000001,835.0,Lake Geneva
PLY,Plymouth Municipal Airport,41.365100860596,-86.300498962402,800.0,Plymouth
CLG,New Coalinga Municipal Airport,36.16310119628906,-120.29399871826172,622.0,Coalinga
CAD,Wexford County Airport,44.275299072299994,-85.4188995361,1307.0,Cadillac
CAE,Columbia Metropolitan Airport,33.93880081176758,-81.11949920654297,236.0,Columbia
CIG,Craig Moffat Airport,40.4952011108,-107.52200317399999,6193.0,Craig
CAK,Akron Canton Regional Airport,40.916099548339844,-81.44219970703125,1228.0,Akron
CAO,Clayton Municipal Airpark,36.446201324499995,-103.166999817,4965.0,Clayton
CAR,Caribou Municipal Airport,46.8714981079,-68.0178985596,626.0,Caribou
CBE,Greater Cumberland Regional Airport,39.615398407,-78.76090240479999,775.0,Cumberland
CBF,Council Bluffs Municipal Airport,41.2592010498,-95.760597229,1253.0,Council Bluffs
CBK,Shalz Field,39.42750168,-101.04699709999998,3187.0,Colby
CBM,Columbus Air Force Base,33.643798828099996,-88.44380187990002,219.0,Columbus
CCB,Cable Airport,34.1115989685,-117.68800354,1444.0,Upland
CCR,Buchanan Field,37.9897003174,-122.056999207,26.0,Concord
CCY,Northeast Iowa Regional Airport,43.072601318400004,-92.61080169680001,1125.0,Charles City
LLX,Caledonia County Airport,44.5690994263,-72.0179977417,1188.0,Lyndonville
CDC,Cedar City Regional Airport,37.70100021362305,-113.0989990234375,5622.0,Cedar City
CDH,Harrell Field,33.622798919699996,-92.7633972168,130.0,Camden
CDN,Woodward Field,34.2835998535,-80.56490325930001,302.0,Camden
CDR,Chadron Municipal Airport,42.837600708000004,-103.095001221,3297.0,Chadron
CDS,Childress Municipal Airport,34.4337997437,-100.288002014,1954.0,Childress
CDW,Essex County Airport,40.875198364300005,-74.2814025879,173.0,Caldwell
CEA,Cessna Aircraft Field,37.648601532,-97.2506027222,1378.0,Wichita
CEC,Jack Mc Namara Field Airport,41.78020096,-124.23699950000001,61.0,Crescent City
CEF,Westover ARB/Metropolitan Airport,42.19400024,-72.53479767,241.0,Springfield/Chicopee
CEU,Oconee County Regional Airport,34.67190170000001,-82.8864975,892.0,Clemson
CEV,Mettel Field,39.6985015869,-85.129699707,867.0,Connersville
CEW,Bob Sikes Airport,30.778799056999997,-86.522102356,213.0,Crestview
CEY,Kyle Oakley Field,36.66460037,-88.37280273,577.0,Murray
CEZ,Cortez Municipal Airport,37.3030014038,-108.627998352,5918.0,Cortez
CFD,Coulter Field,30.715700149499998,-96.3313980103,367.0,Bryan
TZC,Tuscola Area Airport,43.458801269531,-83.44550323486301,701.0,Caro
CFT,Greenlee County Airport,32.95280075,-109.20999909999999,3798.0,Clifton/Morenci
CFV,Coffeyville Municipal Airport,37.09400177,-95.5718994141,754.0,Coffeyville
CGE,Cambridge Dorchester Airport,38.53929901,-76.03040314,20.0,Cambridge
CGF,Cuyahoga County Airport,41.5651016235,-81.4863967896,879.0,Cleveland
CGI,Cape Girardeau Regional Airport,37.22529983520508,-89.57080078125,342.0,Cape Girardeau
CGS,College Park Airport,38.9805984497,-76.9223022461,48.0,College Park
CGZ,Casa Grande Municipal Airport,32.954899,-111.766998,1464.0,Casa Grande
CHA,Lovell Field,35.03530120849609,-85.20379638671875,683.0,Chattanooga
CHK,Chickasha Municipal Airport,35.09740067,-97.96769714,1152.0,Chickasha
CHO,Charlottesville Albemarle Airport,38.13859939575195,-78.4529037475586,639.0,Charlottesville
CHS,Charleston Air Force Base-International Airport,32.89860153,-80.04049683,46.0,Charleston
CIC,Chico Municipal Airport,39.79539871,-121.8580017,240.0,Chico
CID,The Eastern Iowa Airport,41.88470077514648,-91.71080017089844,869.0,Cedar Rapids
CIN,Arthur N Neu Airport,42.0461997986,-94.7890014648,1204.0,Carroll
CIR,Cairo Regional Airport,37.0644989014,-89.2195968628,321.0,Cairo
CIU,Chippewa County International Airport,46.25080108642578,-84.47239685058594,800.0,Sault Ste Marie
CKA,Kegelman AF Aux Field,36.7439002991,-98.1231002808,1202.0,Cherokee
CKB,North Central West Virginia Airport,39.2966003418,-80.2281036377,1217.0,Clarksburg
GRM,Grand Marais Cook County Airport,47.838298797600004,-90.3828964233,1799.0,Grand Marais
CKM,Fletcher Field,34.299701690700005,-90.51229858399999,173.0,Clarksdale
CKN,Crookston Municipal Kirkwood Field,47.8417015076,-96.62159729,899.0,Crookston
CKV,Clarksville–Montgomery County Regional Airport,36.621898651100004,-87.41500091549999,550.0,Clarksville
KCL,Chignik Lagoon Airport,56.31119919,-158.5359955,25.0,Chignik Flats
CLE,Cleveland Hopkins International Airport,41.411701202399996,-81.8498001099,791.0,Cleveland
CLI,Clintonville Municipal Airport,44.6138000488,-88.731300354,822.0,Clintonville
CLK,Clinton Regional Airport,35.53829956,-98.93270111,1616.0,Clinton
CLL,Easterwood Field,30.58860016,-96.36380005,320.0,College Station
CLM,William R Fairchild International Airport,48.120201110839844,-123.5,291.0,Port Angeles
CLR,Cliff Hatfield Memorial Airport,33.131500244099996,-115.52100372299999,-182.0,Calipatria
CLS,Chehalis Centralia Airport,46.6769981384,-122.98300170899999,176.0,Chehalis
CLT,Charlotte Douglas International Airport,35.2140007019043,-80.94309997558594,748.0,Charlotte
CLW,Clearwater Air Park,27.9766998291,-82.7586975098,71.0,Clearwater
CMH,John Glenn Columbus International Airport,39.998001,-82.891899,815.0,Columbus
CMI,University of Illinois Willard Airport,40.03919983,-88.27809906,755.0,Champaign/Urbana
CMX,Houghton County Memorial Airport,47.16839981079102,-88.48909759521484,1095.0,Hancock
CMY,Sparta Fort Mc Coy Airport,43.958302,-90.7379,837.0,Sparta
CNH,Claremont Municipal Airport,43.3703994751,-72.36869812009998,545.0,Claremont
CNK,Blosser Municipal Airport,39.5493011475,-97.6522979736,1486.0,Concordia
CNM,Cavern City Air Terminal,32.337501525878906,-104.26300048828124,3295.0,Carlsbad
CNO,Chino Airport,33.97470093,-117.637001,650.0,Chino
CNU,Chanute Martin Johnson Airport,37.668800354,-95.4850997925,1002.0,Chanute
CNW,TSTC Waco Airport,31.6378002167,-97.07409667969999,470.0,Waco
CNY,Canyonlands Field,38.75500107,-109.7549973,4557.0,Moab
COD,Yellowstone Regional Airport,44.520198822,-109.024002075,5102.0,Cody
COE,Coeur D'Alene - Pappy Boyington Field,47.77429962,-116.8199997,2320.0,Coeur d'Alene
COF,Patrick Air Force Base,28.2348995209,-80.6100997925,8.0,Cocoa Beach
COI,Merritt Island Airport,28.3416004181,-80.6855010986,6.0,Merritt Island
COM,Coleman Municipal Airport,31.8411006927,-99.4036026001,1697.0,Coleman
CON,Concord Municipal Airport,43.20270157,-71.50229645,342.0,Concord
COS,City of Colorado Springs Municipal Airport,38.805801,-104.70099599999999,6187.0,Colorado Springs
COT,Cotulla-La Salle County Airport,28.45669937,-99.22029877,474.0,Cotulla
COU,Columbia Regional Airport,38.8181,-92.219597,889.0,Columbia
CPM,Compton Woodley Airport,33.8899993896,-118.244003296,97.0,Compton
CPR,Casper-Natrona County International Airport,42.908001,-106.46399699999999,5350.0,Casper
CPS,St Louis Downtown Airport,38.570701599100005,-90.1561965942,413.0,Cahokia/St Louis
HCW,Cheraw Municipal Airport/Lynch Bellinger Field,34.71289825,-79.95700073,239.0,Cheraw
KCR,Colorado Creek Airport,63.5676994324,-155.988998413,860.0,Colorado Creek
CRE,Grand Strand Airport,33.811698913600004,-78.72389984130002,32.0,North Myrtle Beach
CRG,Jacksonville Executive at Craig Airport,30.3362998962,-81.51439666750002,41.0,Jacksonville
CRO,Corcoran Airport,36.102502,-119.595001,197.0,Corcoran
CRP,Corpus Christi International Airport,27.77039909362793,-97.5011978149414,44.0,Corpus Christi
CLD,Mc Clellan-Palomar Airport,33.12829971,-117.27999879999999,331.0,Carlsbad
CRS,C David Campbell Field Corsicana Municipal Airport,32.028099060100004,-96.4005966187,449.0,Corsicana
CRT,Z M Jack Stell Field,33.1782989502,-91.88020324709998,184.0,Crossett
CRW,Yeager Airport,38.37310028076172,-81.59320068359375,981.0,Charleston
CRX,Roscoe Turner Airport,34.9150009155,-88.60350036620001,425.0,Corinth
CSG,Columbus Metropolitan Airport,32.516300201416016,-84.93890380859375,397.0,Columbus
CSM,Clinton Sherman Airport,35.3398017883,-99.2005004883,1922.0,Clinton
CSQ,Creston Municipal Airport,41.0214004517,-94.36329650879999,1300.0,Creston
CSV,Crossville Memorial Whitson Field,35.9513015747,-85.08499908450001,1881.0,Crossville
CTB,Cut Bank International Airport,48.6083984375,-112.375999451,3854.0,Cut Bank
CTY,Cross City Airport,29.6354999542,-83.10479736330002,42.0,Cross City
CTZ,Sampson County Airport,34.9756011963,-78.36460113529999,148.0,Clinton
CUB,Jim Hamilton L.B. Owens Airport,33.970500946,-80.9952011108,193.0,Columbia
CUH,Cushing Municipal Airport,35.9499015808,-96.7731018066,916.0,Cushing
CVG,Cincinnati Northern Kentucky International Airport,39.0488014221,-84.6678009033,896.0,Cincinnati
CKK,Sharp County Regional Airport,36.26490021,-91.56259918,716.0,Ash Flat
CVN,Clovis Municipal Airport,34.4250984192,-103.07900238,4216.0,Clovis
CVO,Corvallis Municipal Airport,44.49720001,-123.29000090000001,250.0,Corvallis
CVS,Cannon Air Force Base,34.3828010559,-103.321998596,4295.0,Clovis
CWA,Central Wisconsin Airport,44.7775993347,-89.6668014526,1277.0,Mosinee
KIP,Kickapoo Downtown Airport,33.85779953,-98.49040222,1003.0,Wichita Falls
CWF,Chennault International Airport,30.2105998993,-93.14320373540001,17.0,Lake Charles
CWI,Clinton Municipal Airport,41.8311004639,-90.3291015625,708.0,Clinton
CXL,Calexico International Airport,32.6694984436,-115.51300048799999,4.0,Calexico
CXO,Conroe-North Houston Regional Airport,30.351801000000002,-95.414497,245.0,Houston
CSN,Carson Airport,39.192199707,-119.73400116,4697.0,Carson City
HAR,Capital City Airport,40.2170982361,-76.85150146480001,347.0,Harrisburg
CYS,Cheyenne Regional Jerry Olson Field,41.15570068,-104.81199649999999,6159.0,Cheyenne
CZT,Dimmit County Airport,28.5221996307,-99.823600769,599.0,Carrizo Springs
VEX,Tioga Municipal Airport,48.38050079,-102.8980026,2271.0,Tioga
DAA,Davison Army Air Field,38.715000152600005,-77.1809997559,73.0,Fort Belvoir
DAB,Daytona Beach International Airport,29.179899,-81.058098,34.0,Daytona Beach
DAG,Barstow Daggett Airport,34.85369873,-116.78700259999998,1930.0,Daggett
DAL,Dallas Love Field,32.847099,-96.851799,487.0,Dallas
DAN,Danville Regional Airport,36.572898864746094,-79.33609771728516,571.0,Danville
DAY,James M Cox Dayton International Airport,39.90240097045898,-84.21939849853516,1009.0,Dayton
DBN,W H 'Bud' Barron Airport,32.56439972,-82.98529816,309.0,Dublin
DBQ,Dubuque Regional Airport,42.40200043,-90.70950317,1077.0,Dubuque
DCA,Ronald Reagan Washington National Airport,38.8521,-77.037697,15.0,Washington
DCU,Pryor Field Regional Airport,34.6526985168,-86.94539642330002,592.0,Decatur
DDC,Dodge City Regional Airport,37.76340103149414,-99.9655990600586,2594.0,Dodge City
DEC,Decatur Airport,39.83459854125977,-88.8656997680664,682.0,Decatur
DEH,Decorah Municipal Airport,43.27550125,-91.73940277,1158.0,Decorah
DEN,Denver International Airport,39.861698150635,-104.672996521,5431.0,Denver
DET,Coleman A. Young Municipal Airport,42.40919876,-83.00990295,626.0,Detroit
DFI,Defiance Memorial Airport,41.3375015259,-84.4288024902,707.0,Defiance
DFW,Dallas Fort Worth International Airport,32.896801,-97.038002,607.0,Dallas-Fort Worth
DGL,Douglas Municipal Airport,31.3425998688,-109.505996704,4173.0,Douglas
DGW,Converse County Airport,42.79719925,-105.38600159999999,4933.0,Douglas
DHN,Dothan Regional Airport,31.3213005065918,-85.44960021972656,401.0,Dothan
DHT,Dalhart Municipal Airport,36.0225982666,-102.54699707,3991.0,Dalhart
DIK,Dickinson Theodore Roosevelt Regional Airport,46.7974014282,-102.80200195299999,2592.0,Dickinson
DKK,Chautauqua County-Dunkirk Airport,42.49330139,-79.27200317,693.0,Dunkirk
DLL,Dillon County Airport,34.4491004944,-79.368598938,133.0,Dillon
DLF,DLF Airport,29.359501,-100.778002,1082.0,Del Rio
DLH,Duluth International Airport,46.8420982361,-92.19360351559999,1428.0,Duluth
DLN,Dillon Airport,45.2554016113,-112.553001404,5241.0,Dillon
DLS,Columbia Gorge Regional the Dalles Municipal Airport,45.618499755900004,-121.166999817,247.0,The Dalles
DMA,Davis Monthan Air Force Base,32.1665000916,-110.883003235,2704.0,Tucson
DMN,Deming Municipal Airport,32.262298584,-107.721000671,4314.0,Deming
DMO,Sedalia Memorial Airport,38.70740127559999,-93.17590332030001,909.0,Sedalia
DNL,Daniel Field,33.4664993286,-82.0393981934,423.0,Augusta
DNN,Dalton Municipal Airport,34.72290039,-84.87020111,709.0,Dalton
DNS,Denison Municipal Airport,41.986400599999996,-95.38069916,1274.0,Denison
DNV,Vermilion Regional Airport,40.19919968,-87.59590149,697.0,Danville
DOV,Dover Air Force Base,39.12950134,-75.46600342,24.0,Dover
DPA,Dupage Airport,41.90779877,-88.24859619,759.0,Chicago/West Chicago
DPG,Michael AAF (Dugway Proving Ground) Airport,40.19940186,-112.9369965,4349.0,Dugway Proving Ground
DRA,Desert Rock Airport,36.6194,-116.032997,3314.0,Mercury
DRI,Beauregard Regional Airport,30.8316993713,-93.3398971558,202.0,De Ridder
DRE,Drummond Island Airport,46.0093002319,-83.74389648440001,668.0,Drummond Island
DRO,Durango La Plata County Airport,37.1515007019,-107.75399780299999,6685.0,Durango
DRT,Del Rio International Airport,29.3742008209,-100.92700195299999,1002.0,Del Rio
DSM,Des Moines International Airport,41.53400039672852,-93.66310119628906,958.0,Des Moines
DSV,Dansville Municipal Airport,42.5708999634,-77.71309661869999,662.0,Dansville
DTA,Delta Municipal Airport,39.3805999756,-112.508003235,4759.0,Delta
DTL,Detroit Lakes Airport - Wething Field,46.82519913,-95.88569641,1397.0,Detroit Lakes
DTN,Shreveport Downtown Airport,32.5401992798,-93.7450027466,179.0,Shreveport
DSI,Destin Executive Airport,30.40010071,-86.47149658,23.0,Destin
DTW,Detroit Metropolitan Wayne County Airport,42.212398529052734,-83.35340118408203,645.0,Detroit
DUA,Eaker Field,33.94229889,-96.39450073,699.0,Durant
DUC,Halliburton Field,34.47090149,-97.95989990000001,1114.0,Duncan
DUG,Bisbee Douglas International Airport,31.4689998627,-109.60399627700001,4154.0,Douglas Bisbee
DUJ,DuBois Regional Airport,41.17829895,-78.8986969,1817.0,Dubois
DVL,Devils Lake Regional Airport,48.11420059,-98.90879822,1456.0,Devils Lake
DVN,Davenport Municipal Airport,41.61029816,-90.58830261,751.0,Davenport
NOT,Marin County Airport - Gnoss Field,38.143600463867,-122.55599975586,2.0,Novato
NSL,Slayton Municipal Airport,43.986801147461,-95.78260040283199,1623.0,Slayton
DVT,Phoenix Deer Valley Airport,33.688301086399996,-112.083000183,1478.0,Phoenix
DWH,David Wayne Hooks Memorial Airport,30.0618000031,-95.5528030396,152.0,Houston
DXR,Danbury Municipal Airport,41.3714981079,-73.48220062259999,458.0,Danbury
DYL,Doylestown Airport,40.3330001831,-75.1222991943,394.0,Doylestown
DYS,Dyess Air Force Base,32.4207992554,-99.85459899899999,1789.0,Abilene
MIF,Roy Hurd Memorial Airport,31.582500457764002,-102.90899658203001,2615.0,Monahans
CCG,Crane County Airport,31.415100097699998,-102.362998962,2552.0,Crane
ESO,Ohkay Owingeh Airport,36.0299987793,-106.04599762,5790.0,Espanola
WTR,Whiteriver Airport,33.8125,-109.98699950000001,5153.0,Whiteriver
ALE,Alpine Casparis Municipal Airport,30.3841991425,-103.683998108,4515.0,Alpine
BGT,Bagdad Airport,34.5959014893,-113.169998169,4183.0,Bagdad
EAN,Phifer Airfield,42.0555,-104.929001,4776.0,Wheatland
EAR,Kearney Regional Airport,40.72700119,-99.00679779,2131.0,Kearney
EAT,Pangborn Memorial Airport,47.3988990784,-120.20700073200001,1249.0,Wenatchee
EAU,Chippewa Valley Regional Airport,44.86579895019531,-91.48429870605469,913.0,Eau Claire
KEB,Nanwalek Airport,59.352100372299994,-151.925003052,27.0,Nanwalek
EBS,Webster City Municipal Airport,42.43659973,-93.86889648,1122.0,Webster City
ECG,Elizabeth City Regional Airport & Coast Guard Air Station,36.26060104,-76.17459869,12.0,Elizabeth City
ECP,Northwest Florida Beaches International Airport,30.357105999999998,-85.79541400000001,69.0,Panama City Beach
ECS,Mondell Field,43.885399,-104.318001,4174.0,Newcastle
EDE,Northeastern Regional Airport,36.027698516799994,-76.56710052490001,20.0,Edenton
ETS,Enterprise Municipal Airport,31.29969978,-85.89990234,361.0,Enterprise
EDW,Edwards Air Force Base,34.905398999999996,-117.884003,2312.0,Edwards
EED,Needles Airport,34.7663002014,-114.62300109899999,983.0,Needles
EEN,Dillant Hopkins Airport,42.898399353027344,-72.27079772949219,488.0,Keene
EFD,Ellington Airport,29.6072998047,-95.15879821780001,32.0,Houston
EFK,Northeast Kingdom International Airport,44.888802,-72.229202,930.0,Newport
EFW,Jefferson Municipal Airport,42.0102005,-94.34259796,1044.0,Jefferson
EGE,Eagle County Regional Airport,39.64260101,-106.9179993,6548.0,Eagle
EGI,Duke Field,30.65040016,-86.52290344,191.0,Crestview
EGV,Eagle River Union Airport,45.9323005676,-89.26830291750002,1642.0,Eagle River
KEK,Ekwok Airport,59.3568000793457,-157.4709930419922,135.0,Ekwok
EKA,Murray Field,40.8033981323,-124.112998962,7.0,Eureka
EKI,Elkhart Municipal Airport,41.7193984985,-86.00319671630001,778.0,Elkhart
EKN,Elkins-Randolph Co-Jennings Randolph Field,38.88940048,-79.85710144,1987.0,Elkins
EKO,Elko Regional Airport,40.82490158081055,-115.79199981689452,5140.0,Elko
EKX,Addington Field,37.686000824000004,-85.9250030518,775.0,Elizabethtown
ELA,Eagle Lake Airport,29.600599288900003,-96.3218994141,184.0,Eagle Lake
ELD,South Arkansas Regional At Goodwin Field,33.22100067138672,-92.81330108642578,277.0,El Dorado
ELK,Elk City Regional Business Airport,35.43080139,-99.39430237,2013.0,Elk City
ELM,Elmira Corning Regional Airport,42.1599006652832,-76.8916015625,954.0,Elmira/Corning
ELN,Bowers Field,47.03300095,-120.53099820000001,1764.0,Ellensburg
LYU,Ely Municipal Airport,47.82450104,-91.83070374,1456.0,Ely
ELP,El Paso International Airport,31.80719948,-106.37799840000002,3959.0,El Paso
ELY,Ely Airport Yelland Field,39.29970169,-114.84200290000001,6259.0,Ely
ELZ,"Wellsville Municipal Arpt,Tarantine Field",42.10950089,-77.98999786,2124.0,Wellsville
EMM,Kemmerer Municipal Airport,41.82410049439999,-110.556999207,7285.0,Kemmerer
EMP,Emporia Municipal Airport,38.3320999146,-96.1912002563,1208.0,Emporia
EMT,San Gabriel Valley Airport,34.086102000000004,-118.035004,296.0,El Monte
END,Vance Air Force Base,36.339199066199996,-97.9164962769,1307.0,Enid
ENL,Centralia Municipal Airport,38.515098571799996,-89.0911026001,534.0,Centralia
ENV,Wendover Airport,40.7187004089,-114.03099823,4237.0,Wendover
ENW,Kenosha Regional Airport,42.59569931,-87.92780304,742.0,Kenosha
EOK,Keokuk Municipal Airport,40.4598999023,-91.4284973145,671.0,Keokuk
EPH,Ephrata Municipal Airport,47.30759811,-119.51599879999999,1276.0,Ephrata
EDK,Captain Jack Thomas El Dorado Airport,37.7741012573,-96.8175964355,1378.0,El Dorado
ERI,Erie International Tom Ridge Field,42.0831270134,-80.1738667488,732.0,Erie
ERR,Errol Airport,44.792499542200005,-71.1641998291,1245.0,Errol
ERV,Kerrville Municipal Louis Schreiner Field,29.9766998291,-99.08570098879999,1617.0,Kerrville
ESC,Delta County Airport,45.7226982117,-87.0936965942,609.0,Escanaba
ESF,Esler Regional Airport,31.3948993683,-92.29579925540001,112.0,Alexandria
ESN,Easton Newnam Field,38.8041992188,-76.06900024410002,72.0,Easton
EST,Estherville Municipal Airport,43.40739822,-94.74639893,1319.0,Estherville
ESW,Easton State Airport,47.2541999817,-121.18599700899999,2226.0,Easton
ETB,West Bend Municipal Airport,43.4221992493,-88.1278991699,887.0,West Bend
ETN,Eastland Municipal Airport,32.4135017395,-98.8097991943,1464.0,Eastland
EUF,Weedon Field,31.951299667399997,-85.1288986206,285.0,Eufaula
EUG,Mahlon Sweet Field,44.12459945678711,-123.21199798583984,374.0,Eugene
EVM,Eveleth Virginia Municipal Airport,47.42509842,-92.49849701,1379.0,Eveleth
EVV,Evansville Regional Airport,38.0369987488,-87.53240203860001,418.0,Evansville
EVW,Evanston-Uinta County Airport-Burns Field,41.27479935,-111.0350037,7143.0,Evanston
EWB,New Bedford Regional Airport,41.67610168457031,-70.95690155029297,80.0,New Bedford
EWK,Newton City-County Airport,38.0582008362,-97.2744979858,1533.0,Newton
EWN,Coastal Carolina Regional Airport,35.0730018616,-77.04290008539998,18.0,New Bern
EWR,Newark Liberty International Airport,40.69250106811523,-74.168701171875,18.0,Newark
EYW,Key West International Airport,24.556100845336914,-81.75959777832031,3.0,Key West
WIB,Wilbarger County Airport,34.2257003784,-99.28379821780001,1265.0,Vernon
RBK,French Valley Airport,33.5741996765,-117.127998352,1350.0,Murrieta/Temecula
FAF,Felker Army Air Field,37.1324996948,-76.60880279540002,12.0,Fort Eustis
FAM,Farmington Regional Airport,37.76110077,-90.4285965,946.0,Farmington
FAR,Hector International Airport,46.92070007324219,-96.81580352783205,902.0,Fargo
FAT,Fresno Yosemite International Airport,36.77619934082031,-119.71800231933594,336.0,Fresno
FAY,Fayetteville Regional Grannis Field,34.991199493408196,-78.88030242919922,189.0,Fayetteville
FBG,Simmons Army Air Field,35.13180161,-78.93669891,244.0,Fort Bragg
FBL,Faribault Municipal Airport-Liz Wall Strohfus Field,44.32844,-93.312534,1060.0,Faribault
FBR,Fort Bridger Airport,41.3918991089,-110.40699768100001,7034.0,Fort Bridger
FBY,Fairbury Municipal Airport,40.182998657199995,-97.16929626459999,1479.0,Fairbury
FCH,Fresno Chandler Executive Airport,36.73239899,-119.8199997,279.0,Fresno
FCM,Flying Cloud Airport,44.827201843299996,-93.4570999146,906.0,Minneapolis
FCS,Butts AAF (Fort Carson) Air Field,38.67839813,-104.75700379999999,5838.0,Fort Carson
FCY,Forrest City Municipal Airport,34.942001342800005,-90.7750015259,249.0,Forrest City
FDK,Frederick Municipal Airport,39.4175987244,-77.3742980957,303.0,Frederick
FDR,Frederick Regional Airport,34.35200119,-98.98390198,1258.0,Frederick
FDY,Findlay Airport,41.013500213600004,-83.66870117190001,813.0,Findlay
FEP,Albertus Airport,42.246200561500004,-89.58200073239998,859.0,Freeport
FET,Fremont Municipal Airport,41.44910049,-96.52020264,1204.0,Fremont
FFA,First Flight Airport,36.0181999207,-75.67130279540002,13.0,Kill Devil Hills
FFL,Fairfield Municipal Airport,41.0532989502,-91.97889709469999,799.0,Fairfield
FFM,Fergus Falls Municipal Airport - Einar Mickelson Field,46.28440094,-96.15670013,1183.0,Fergus Falls
FFO,Wright-Patterson Air Force Base,39.8260993958,-84.04830169680001,823.0,Dayton
FFT,Capital City Airport,38.18249893,-84.90470123,806.0,Frankfort
MSC,Falcon Field,33.4608001709,-111.72799682600001,1394.0,Mesa
FRD,Friday Harbor Airport,48.5219993591,-123.024002075,113.0,Friday Harbor
FHU,Sierra Vista Municipal Libby Army Air Field,31.58849906921387,-110.34400177001952,4719.0,Fort Huachuca Sierra Vista
FKL,Venango Regional Airport,41.3778991699,-79.8603973389,1540.0,Franklin
FKN,Franklin Regional Airport,36.698101,-76.903801,41.0,Franklin
FLD,Fond du Lac County Airport,43.771198272700005,-88.48840332030001,808.0,Fond du Lac
FLG,Flagstaff Pulliam Airport,35.13850021,-111.6709976,7014.0,Flagstaff
FLL,Fort Lauderdale Hollywood International Airport,26.072599,-80.152702,9.0,Fort Lauderdale
FLO,Florence Regional Airport,34.18539810180664,-79.7238998413086,146.0,Florence
FLP,Marion County Regional Airport,36.29090118,-92.59030151,719.0,Flippin
FLV,Sherman Army Air Field,39.3683013916,-94.9147033691,772.0,Fort Leavenworth
FLX,Fallon Municipal Airport,39.4990997314,-118.749000549,3963.0,Fallon
FME,Tipton Airport,39.08539962769999,-76.7593994141,150.0,Fort Meade(Odenton)
FMH,Cape Cod Coast Guard Air Station,41.6584014893,-70.5214004517,131.0,Falmouth
FMN,Four Corners Regional Airport,36.7411994934,-108.230003357,5506.0,Farmington
FMY,Page Field,26.58659935,-81.86329650879998,17.0,Fort Myers
FNL,Northern Colorado Regional Airport,40.451803999999996,-105.01100000000001,5016.0,Fort Collins/Loveland
FNT,Bishop International Airport,42.96540069580078,-83.74359893798828,782.0,Flint
FOD,Fort Dodge Regional Airport,42.55149841,-94.19259644,1156.0,Fort Dodge
FOE,Topeka Regional Airport - Forbes Field,38.9509010315,-95.6635971069,1078.0,Topeka
FOK,Francis S Gabreski Airport,40.8437004089,-72.6317977905,67.0,Westhampton Beach
FIL,Fillmore Municipal Airport,38.95830154,-112.362999,4985.0,Fillmore
FPR,St Lucie County International Airport,27.49510002,-80.36830139,24.0,Fort Pierce
FRG,Republic Airport,40.7288017273,-73.41339874270001,82.0,Farmingdale
FRH,French Lick Municipal Airport,38.5061988831,-86.63690185550001,792.0,French Lick
FRI,Marshall Army Air Field,39.05530167,-96.76450348,1065.0,Fort Riley(Junction City)
FRM,Fairmont Municipal Airport,43.643901825,-94.4156036377,1162.0,Fairmont
FRR,Front Royal Warren County Airport,38.9174995422,-78.25350189210002,709.0,Front Royal
FSD,Joe Foss Field Airport,43.5820007324,-96.741897583,1429.0,Sioux Falls
FSI,Henry Post Army Air Field (Fort Sill),34.64979935,-98.40219879,1189.0,Fort Sill
FSK,Fort Scott Municipal Airport,37.7984008789,-94.7694015503,918.0,Fort Scott
FSM,Fort Smith Regional Airport,35.33660125732422,-94.36740112304688,469.0,Fort Smith
FST,Fort Stockton Pecos County Airport,30.9157009125,-102.916000366,3011.0,Fort Stockton
FSU,Fort Sumner Municipal Airport,34.4833984375,-104.217002869,4165.0,Fort Sumner
FMS,Fort Madison Municipal Airport,40.659302000000004,-91.326797,724.0,Fort Madison
FTK,Godman Army Air Field,37.9071006775,-85.9720993042,756.0,Fort Knox
FTW,Fort Worth Meacham International Airport,32.819801,-97.36239599999999,710.0,Fort Worth
FTY,Fulton County Airport Brown Field,33.7790985107,-84.5214004517,841.0,Atlanta
FUL,Fullerton Municipal Airport,33.8720016479,-117.980003357,96.0,Fullerton
WFK,Northern Aroostook Regional Airport,47.2854995728,-68.31279754639999,988.0,Frenchville
FWA,Fort Wayne International Airport,40.97850037,-85.19509888,814.0,Fort Wayne
FXE,Fort Lauderdale Executive Airport,26.1972999573,-80.1707000732,13.0,Fort Lauderdale
FXY,Forest City Municipal Airport,43.23469925,-93.62409973,1229.0,Forest City
FYM,Fayetteville Municipal Airport,35.059700012200004,-86.56400299069999,984.0,Fayetteville
FYV,Drake Field,36.00510025024414,-94.17009735107422,1251.0,Fayetteville
GAD,Northeast Alabama Regional Airport,33.972599,-86.088996,569.0,Gadsden
GAG,Gage Airport,36.295501709,-99.7763977051,2223.0,Gage
GAI,Montgomery County Airpark,39.168300628699996,-77.1660003662,539.0,Gaithersburg
GBD,Great Bend Municipal Airport,38.3442993164,-98.85919952389999,1887.0,Great Bend
GBG,Galesburg Municipal Airport,40.9379997253,-90.43109893799999,764.0,Galesburg
GBR,Walter J. Koladza Airport,42.18420029,-73.40319824,739.0,Great Barrington
GCC,Gillette Campbell County Airport,44.3488998413,-105.539001465,4365.0,Gillette
JDA,Grant Co Regional/Ogilvie Field,44.40420151,-118.96299740000002,3703.0,John Day
GCK,Garden City Regional Airport,37.9275016785,-100.72399902299999,2891.0,Garden City
GCN,Grand Canyon National Park Airport,35.95240020751953,-112.14700317382812,6609.0,Grand Canyon
GCY,Greeneville-Greene County Municipal Airport,36.19300079,-82.81510162,1608.0,Greeneville
GDM,Gardner Municipal Airport,42.5499992371,-72.0160980225,955.0,Gardner
GDV,Dawson Community Airport,47.13869858,-104.8069992,2458.0,Glendive
GDW,Gladwin Zettel Memorial Airport,43.9706001282,-84.47499847410002,776.0,Gladwin
GED,Sussex County Airport,38.68920135,-75.35890198,53.0,Georgetown
GEG,Spokane International Airport,47.61989974975586,-117.53399658203124,2376.0,Spokane
GEY,South Big Horn County Airport,44.51679993,-108.08300020000001,3939.0,Greybull
GFK,Grand Forks International Airport,47.949298999999996,-97.176102,845.0,Grand Forks
GFL,Floyd Bennett Memorial Airport,43.3412017822,-73.6102981567,328.0,Glens Falls
GGE,Georgetown County Airport,33.311698913600004,-79.3196029663,39.0,Georgetown
GGG,East Texas Regional Airport,32.38399887084961,-94.71150207519531,365.0,Longview
GGW,Wokal Field/Glasgow-Valley County Airport,48.212502,-106.614998,2296.0,Glasgow
GHM,Centerville Municipal Airport,35.8373985291,-87.44539642330002,768.0,Centerville
GIF,Winter Haven Regional Airport - Gilbert Field,28.062901,-81.753304,145.0,Winter Haven
GJT,Grand Junction Regional Airport,39.1223983765,-108.527000427,4858.0,Grand Junction
MEJ,Port Meadville Airport,41.62649918,-80.21469879,1399.0,Meadville
GKT,Gatlinburg-Pigeon Forge Airport,35.85779953,-83.52870178219999,1014.0,Sevierville
GLD,Renner Field-Goodland Municipal Airport,39.37060165,-101.6989975,3656.0,Goodland
GLE,Gainesville Municipal Airport,33.651401519800004,-97.1969985962,845.0,Gainesville
GLH,Mid Delta Regional Airport,33.482898712158196,-90.98560333251952,131.0,Greenville
GLR,Gaylord Regional Airport,45.0135002136,-84.7035980225,1328.0,Gaylord
GLS,Scholes International At Galveston Airport,29.265300750732425,-94.8603973388672,6.0,Galveston
GLW,Glasgow Municipal Airport,37.03179932,-85.95369720000001,716.0,Glasgow
GMU,Greenville Downtown Airport,34.847900390599996,-82.34999847410002,1048.0,Greenville
GNG,Gooding Municipal Airport,42.91719818,-114.7649994,3732.0,Gooding
GNT,Grants-Milan Municipal Airport,35.167301178,-107.902000427,6537.0,Grants
GNV,Gainesville Regional Airport,29.6900997162,-82.27179718020001,152.0,Gainesville
GOK,Guthrie-Edmond Regional Airport,35.84980011,-97.41560364,1069.0,Guthrie
GON,Groton New London Airport,41.3301010131836,-72.04509735107422,9.0,Groton (New London)
FCA,Glacier Park International Airport,48.31050109863281,-114.25599670410156,2977.0,Kalispell
GPT,Gulfport Biloxi International Airport,30.40730094909668,-89.07009887695312,28.0,Gulfport
GPZ,Grand Rapids Itasca Co-Gordon Newstrom field,47.21110153,-93.50980377,1355.0,Grand Rapids
GQQ,Galion Municipal Airport,40.7533988953,-82.7238006592,1224.0,Galion
GRB,Austin Straubel International Airport,44.48509979248047,-88.12960052490234,695.0,Green Bay
GRD,Greenwood County Airport,34.2486991882,-82.15910339359999,631.0,Greenwood
GRE,Greenville Airport,38.836200714099995,-89.37840271,541.0,Greenville
GRF,Gray Army Air Field,47.07920074,-122.5810013,300.0,Fort Lewis/Tacoma
GRI,Central Nebraska Regional Airport,40.96749877929688,-98.30960083007812,1847.0,Grand Island
GRK,Robert Gray  Army Air Field Airport,31.067199706999997,-97.8289031982,1015.0,Fort Hood/Killeen
GRN,Gordon Municipal Airport,42.805999755900004,-102.17500305200001,3562.0,Gordon
GRR,Gerald R. Ford International Airport,42.88079834,-85.52279663,794.0,Grand Rapids
GSB,Seymour Johnson Air Force Base,35.33940125,-77.96060181,109.0,Goldsboro
GSH,Goshen Municipal Airport,41.5264015198,-85.79290008539998,827.0,Goshen
GSO,Piedmont Triad International Airport,36.097801208496094,-79.93730163574219,925.0,Greensboro
GSP,Greenville Spartanburg International Airport,34.895698547399995,-82.2189025879,964.0,Greenville
GTF,Great Falls International Airport,47.48199844,-111.3710022,3680.0,Great Falls
GTG,Grantsburg Municipal Airport,45.7980995178,-92.6643981934,927.0,Grantsburg
GTR,Golden Triangle Regional Airport,33.450298309299995,-88.59140014649999,264.0,Columbus/W Point/Starkville
GUC,Gunnison Crested Butte Regional Airport,38.53390121,-106.9329987,7680.0,Gunnison
GUP,Gallup Municipal Airport,35.511100769,-108.789001465,6472.0,Gallup
GUS,Grissom Air Reserve Base,40.648101806599996,-86.15209960940001,812.0,Peru
GUY,Guymon Municipal Airport,36.6851005554,-101.508003235,3123.0,Guymon
GVL,Lee Gilmer Memorial Airport,34.27259827,-83.8302002,1276.0,Gainesville
GVT,Majors Airport,33.0677986145,-96.0652999878,535.0,Greenville
GWO,Greenwood–Leflore Airport,33.4943008423,-90.08470153809999,162.0,Greenwood
GWS,Glenwood Springs Municipal Airport,39.5083007812,-107.31099700899999,5916.0,Glenwood Springs
KGX,Grayling Airport,62.895187,-160.06628899999998,99.0,Grayling
GXY,Greeley–Weld County Airport,40.4374008179,-104.633003235,4697.0,Greeley
GDC,Donaldson Field Airport,34.758301,-82.37640400000001,955.0,Greenville
PNX,North Texas Regional Airport/Perrin Field,33.714099884,-96.6736984253,749.0,Sherman/Denison
GYR,Phoenix Goodyear Airport,33.4225006104,-112.375999451,968.0,Goodyear
GYY,Gary Chicago International Airport,41.61629867553711,-87.41280364990234,591.0,Gary
KGZ,Glacier Creek Airport,61.4551010132,-142.38099670399998,2380.0,Glacier Creek
HAB,Marion County Rankin Fite Airport,34.11759949,-87.99819946,436.0,Hamilton
HAF,Half Moon Bay Airport,37.5134010315,-122.500999451,66.0,Half Moon Bay
HAI,Three Rivers Municipal Dr Haines Airport,41.9598007202,-85.59339904790002,824.0,Three Rivers
HAO,Butler Co Regional Airport - Hogan Field,39.3638000488,-84.5220031738,633.0,Hamilton
HBG,Hattiesburg Bobby L Chain Municipal Airport,31.26479912,-89.25279999,151.0,Hattiesburg
HBR,Hobart Regional Airport,34.991316999999995,-99.05131300000001,1563.0,Hobart
HDE,Brewster Field,40.452099,-99.336502,2313.0,Holdrege
HDN,Yampa Valley Airport,40.48120117,-107.21800230000001,6606.0,Hayden
HEE,Thompson-Robbins Airport,34.576571,-90.67616,242.0,Helena/West Helena
MNZ,Manassas Regional Airport/Harry P. Davis Field,38.72140121,-77.51540375,192.0,Manassas
HEZ,Hardy-Anders Field / Natchez-Adams County Airport,31.613738,-91.297313,272.0,Natchez
HFD,Hartford Brainard Airport,41.736698150635,-72.64939880371101,18.0,Hartford
HFF,Mackall Army Air Field,35.036288,-79.497755,376.0,Camp Mackall
HGR,Hagerstown Regional Richard A Henson Field,39.707901,-77.72949982,703.0,Hagerstown
HHR,Jack Northrop Field Hawthorne Municipal Airport,33.922798,-118.334999,66.0,Hawthorne
HUJ,Stan Stamper Municipal Airport,34.03480148,-95.54190063,572.0,Hugo
HIB,Range Regional Airport,47.38660049,-92.83899689,1354.0,Hibbing
HIE,Mount Washington Regional Airport,44.367637,-71.54450200000001,1074.0,Whitefield
HIF,Hill Air Force Base,41.12403,-111.97308600000001,4789.0,Ogden
HII,Lake Havasu City Airport,34.571098,-114.358002,783.0,Lake Havasu City
HIO,Portland Hillsboro Airport,45.540401,-122.949997,208.0,Portland
HKA,Blytheville Municipal Airport,35.940399169900004,-89.83080291750002,255.0,Blytheville
HKS,Hawkins Field,32.33449936,-90.22219849,341.0,Jackson
HKY,Hickory Regional Airport,35.74110031,-81.38950348,1190.0,Hickory
HLB,Hillenbrand Industries Airport,39.3445014954,-85.25830078119998,973.0,Batesville
HLC,Hill City Municipal Airport,39.37879944,-99.83149719,2238.0,Hill City
HLG,Wheeling Ohio County Airport,40.1749992371,-80.6463012695,1195.0,Wheeling
HLM,Park Township Airport,42.7958984375,-86.16200256350001,603.0,Holland
HLN,Helena Regional Airport,46.6068000793457,-111.98300170898438,3877.0,Helena
HLR,Hood Army Air Field,31.1387004852,-97.7145004272,924.0,Fort Hood(Killeen)
HMN,Holloman Air Force Base,32.8525009155,-106.107002258,4093.0,Alamogordo
HMT,Hemet Ryan Airport,33.7340011597,-117.023002625,1512.0,Hemet
HNB,Huntingburg Airport,38.2490005493,-86.95369720459999,529.0,Huntingburg
HSH,Henderson Executive Airport,35.9728012085,-115.134002686,2492.0,Las Vegas
HOB,Lea County Regional Airport,32.6875,-103.21700290000001,3661.0,Hobbs
HON,Huron Regional Airport,44.38520050048828,-98.22850036621094,1289.0,Huron
HOP,Campbell AAF (Fort Campbell) Air Field,36.668598175,-87.49620056150002,573.0,Fort Campbell/Hopkinsville
HOT,Memorial Field,34.47800064086914,-93.09619903564452,540.0,Hot Springs
HOU,William P Hobby Airport,29.64539909,-95.27890015,46.0,Houston
HPN,Westchester County Airport,41.06700134277344,-73.70760345458984,439.0,White Plains
HPT,Hampton Municipal Airport,42.7237014771,-93.22630310059999,1176.0,Hampton
HPY,Baytown Airport,29.7861003876,-94.9526977539,34.0,Baytown
HQM,Bowerman Airport,46.9711990356,-123.93699646,18.0,Hoquiam
HES,Hermiston Municipal Airport,45.828223,-119.259024,644.0,Hermiston
HRL,Valley International Airport,26.228500366210934,-97.65440368652344,36.0,Harlingen
HRO,Boone County Airport,36.26150131225586,-93.15470123291016,1365.0,Harrison
HSB,Harrisburg-Raleigh Airport,37.81129837,-88.5503006,398.0,Harrisburg
HNC,Billy Mitchell Airport,35.232799530029,-75.617797851562,17.0,Hatteras
THP,Hot Springs County Airport,43.713602,-108.38968700000001,4895.0,Thermopolis
HSI,Hastings Municipal Airport,40.6053009033,-98.4279022217,1961.0,Hastings
HSP,Ingalls Field,37.95140076,-79.83390045,3793.0,Hot Springs
HST,Homestead ARB Airport,25.48859978,-80.38359833,5.0,Homestead
HSV,Huntsville International Carl T Jones Field,34.637199401855,-86.775100708008,629.0,Huntsville
HTH,Hawthorne Industrial Airport,38.544399,-118.634002,4215.0,Hawthorne
HTL,Roscommon County - Blodgett Memorial Airport,44.359798,-84.671095,1150.0,Houghton Lake
HTO,East Hampton Airport,40.95959854,-72.25180054,55.0,East Hampton
HTS,Tri-State/Milton J. Ferguson Field,38.36669922,-82.55799866,828.0,Huntington
HTW,Lawrence County Airpark,38.4193,-82.49430100000001,568.0,Chesapeake/Huntington Wva
HUA,Redstone Army Air Field,34.67869949,-86.68479919,684.0,Redstone Arsnl Huntsville
HUF,"Terre Haute Regional Airport, Hulman Field",39.4515,-87.307602,589.0,Terre Haute
HUL,Houlton International Airport,46.123100280799996,-67.79209899899999,489.0,Houlton
HUM,Houma Terrebonne Airport,29.566499710100004,-90.66040039059999,10.0,Houma
HUT,Hutchinson Municipal Airport,38.0654983521,-97.86060333250002,1543.0,Hutchinson
HVE,Hanksville Airport,38.4179992676,-110.70400238,4444.0,Hanksville
HVN,Tweed New Haven Airport,41.26369858,-72.88680267,12.0,New Haven
HVR,Havre City County Airport,48.54299927,-109.762001,2591.0,Havre
HVS,Hartsville Regional Airport,34.403099060100004,-80.11920166019999,364.0,Hartsville
HWD,Hayward Executive Airport,37.659198761,-122.122001648,52.0,Hayward
HWO,North Perry Airport,26.0012,-80.2407,8.0,Hollywood
WSH,Brookhaven Airport,40.821899414099995,-72.86940002440001,81.0,Shirley
HHH,Hilton Head Airport,32.2243995667,-80.6975021362,19.0,Hilton Head Island
HYA,Barnstable Municipal Boardman Polando Field,41.66930008,-70.28040314,54.0,Hyannis
HYR,Sawyer County Airport,46.02519989010001,-91.44429779050002,1216.0,Hayward
HYS,Hays Regional Airport,38.84220123,-99.27320099,1999.0,Hays
HZL,Hazleton Municipal Airport,40.9868011475,-75.99490356449999,1603.0,Hazleton
JFN,Northeast Ohio Regional Airport,41.7779998779,-80.6955032349,924.0,Ashtabula
IAB,Mc Connell Air Force Base,37.62189865,-97.26820374,1371.0,Wichita
IAD,Washington Dulles International Airport,38.94449997,-77.45580292,312.0,Washington
IAG,Niagara Falls International Airport,43.1072998046875,-78.94619750976562,589.0,Niagara Falls
IAH,George Bush Intercontinental Houston Airport,29.98439979553223,-95.34140014648438,97.0,Houston
ICL,Schenck Field,40.72180176,-95.02639771,996.0,Clarinda
ICT,Wichita Eisenhower National Airport,37.649899,-97.433098,1333.0,Wichita
IDA,Idaho Falls Regional Airport,43.514599,-112.070999,4744.0,Idaho Falls
IDI,Indiana County/Jimmy Stewart Fld/ Airport,40.63219833,-79.10549927,1405.0,Indiana
IDP,Independence Municipal Airport,37.1584014893,-95.7783966064,825.0,Independence
XPR,Pine Ridge Airport,43.0224990845,-102.51100158700001,3333.0,Pine Ridge
IFA,Iowa Falls Municipal Airport,42.4707984924,-93.2699966431,1137.0,Iowa Falls
IFP,Laughlin Bullhead International Airport,35.15739822,-114.5599976,701.0,Bullhead City
IGM,Kingman Airport,35.259498596191406,-113.93800354003906,3449.0,Kingman
IKK,Greater Kankakee Airport,41.07139968869999,-87.84629821780001,630.0,Kankakee
ILE,Skylark Field,31.0858001709,-97.6865005493,848.0,Killeen
ILG,New Castle Airport,39.67869949,-75.60649872,80.0,Wilmington
ILM,Wilmington International Airport,34.27059936523437,-77.90260314941406,32.0,Wilmington
ILN,Wilmington Airpark,39.427898407,-83.79209899899999,1077.0,Wilmington
IML,Imperial Municipal Airport,40.50930023,-101.6210022,3275.0,Imperial
IMM,Immokalee Regional Airport,26.43320084,-81.40100098,37.0,Immokalee
MDN,Madison Municipal Airport,38.75889969,-85.46549988,819.0,Madison
IMT,Ford Airport,45.8184013367,-88.11450195309999,1182.0,Iron Mountain / Kingsford
IND,Indianapolis International Airport,39.7173,-86.294403,797.0,Indianapolis
INK,Winkler County Airport,31.779600143400003,-103.20099639899999,2822.0,Wink
INL,Falls International Airport,48.566200256347656,-93.4030990600586,1185.0,International Falls
INS,Creech Air Force Base,36.5872001648,-115.672996521,3133.0,Indian Springs
INT,Smith Reynolds Airport,36.13370132446289,-80.22200012207031,969.0,Winston Salem
INW,Winslow Lindbergh Regional Airport,35.021900177,-110.722999573,4941.0,Winslow
IOW,Iowa City Municipal Airport,41.639198303200004,-91.5465011597,668.0,Iowa City
IPL,Imperial County Airport,32.834201812699995,-115.57900238,-54.0,Imperial
IPT,Williamsport Regional Airport,41.241798400878906,-76.92109680175781,529.0,Williamsport
IRK,Kirksville Regional Airport,40.09349822998047,-92.5448989868164,966.0,Kirksville
IRS,Kirsch Municipal Airport,41.81330109,-85.43900299,924.0,Sturgis
ISM,Kissimmee Gateway Airport,28.289800643899998,-81.43710327149999,82.0,Orlando
ISN,Sloulin Field International Airport,48.177898407,-103.64199829100001,1982.0,Williston
ISO,Kinston Regional Jetport At Stallings Field,35.331401825,-77.60880279540002,93.0,Kinston
ISP,Long Island Mac Arthur Airport,40.79520035,-73.10019684,99.0,Islip
ISQ,Schoolcraft County Airport,45.97460175,-86.17179871,684.0,Manistique
ISW,Alexander Field South Wood County Airport,44.360298156700004,-89.83899688720001,1021.0,Wisconsin Rapids
ITH,Ithaca Tompkins Regional Airport,42.49100112915039,-76.4583969116211,1099.0,Ithaca
AZA,Phoenix-Mesa-Gateway Airport,33.30780029,-111.65499879999999,1382.0,Phoenix
IWD,Gogebic Iron County Airport,46.52750015260001,-90.13140106200001,1230.0,Ironwood
ISS,Wiscasset Airport,43.9613990784,-69.712600708,70.0,Wiscasset
IWS,West Houston Airport,29.8181991577,-95.6725997925,111.0,Houston
JCI,New Century Aircenter Airport,38.830898284899995,-94.890296936,1087.0,Olathe
IYK,Inyokern Airport,35.65879822,-117.83000179999999,2457.0,Inyokern
SQA,Santa Ynez Airport,34.60680008,-120.07599640000001,674.0,Santa Ynez
FRY,Eastern Slopes Regional Airport,43.9911003113,-70.94789886470001,454.0,Fryeburg
JAC,Jackson Hole Airport,43.6072998046875,-110.73799896240234,6451.0,Jackson
JAN,Jackson-Medgar Wiley Evers International Airport,32.3111991882,-90.0758972168,346.0,Jackson
JAS,Jasper County Airport-Bell Field,30.88570023,-94.03489685,213.0,Jasper
JAX,Jacksonville International Airport,30.49410057067871,-81.68789672851562,30.0,Jacksonville
JBR,Jonesboro Municipal Airport,35.83169937133789,-90.64640045166016,262.0,Jonesboro
JCT,Kimble County Airport,30.5112991333,-99.76349639889999,1749.0,Junction
JDN,Jordan Airport,47.3288002014,-106.95300293,2662.0,Jordan
JEF,Jefferson City Memorial Airport,38.591201782199995,-92.1560974121,549.0,Jefferson City
JFK,John F Kennedy International Airport,40.63980103,-73.77890015,13.0,New York
JHW,Chautauqua County-Jamestown Airport,42.15340042,-79.25800323,1723.0,Jamestown
GUF,Jack Edwards Airport,30.29050064,-87.67179871,17.0,Gulf Shores
JLN,Joplin Regional Airport,37.151798248291016,-94.49829864501952,981.0,Joplin
JMS,Jamestown Regional Airport,46.92969894,-98.67819977,1500.0,Jamestown
JOT,Joliet Regional Airport,41.51779938,-88.17549896,582.0,Joliet
USA,Concord-Padgett Regional Airport,35.387798,-80.709099,705.0,Concord
JKV,Cherokee County Airport,31.8693008423,-95.2173995972,677.0,Jacksonville
JST,John Murtha Johnstown Cambria County Airport,40.31610107421875,-78.83390045166016,2284.0,Johnstown
JVL,Southern Wisconsin Regional Airport,42.620300293,-89.0416030884,808.0,Janesville
JXN,Jackson County Reynolds Field,42.2597999573,-84.45939636230001,1001.0,Jackson
KIC,Mesa Del Rey Airport,36.2280006409,-121.122001648,370.0,King City
KLS,Southwest Washington Regional Airport,46.11800003049999,-122.898002625,20.0,Kelso
KKU,Ekuk Airport,58.8111991882,-158.559005737,30.0,Ekuk
DTH,Furnace Creek Airport,36.463799,-116.880997,-210.0,Death Valley National Park
BXS,Borrego Valley Airport,33.2589988708,-116.320999146,520.0,Borrego Springs
RBF,Big Bear City Airport,34.2638015747,-116.85600280799999,6752.0,Big Bear
TRH,Trona Airport,35.8125,-117.327003479,1716.0,Trona
LAA,Lamar Municipal Airport,38.069698333699996,-102.68800354,3706.0,Lamar
LAF,Purdue University Airport,40.41230010986328,-86.93689727783203,606.0,Lafayette
LAL,Lakeland Linder International Airport,27.988899,-82.018602,142.0,Lakeland
LAM,Los Alamos Airport,35.8797988892,-106.26899719200001,7171.0,Los Alamos
LAN,Capital City Airport,42.77870178222656,-84.58740234375,861.0,Lansing
LAR,Laramie Regional Airport,41.31209945678711,-105.6750030517578,7284.0,Laramie
LAS,McCarran International Airport,36.08010101,-115.15200039999999,2181.0,Las Vegas
LAW,Lawton Fort Sill Regional Airport,34.5676994324,-98.4166030884,1110.0,Lawton
LAX,Los Angeles International Airport,33.94250107,-118.40799709999999,125.0,Los Angeles
LBB,Lubbock Preston Smith International Airport,33.663601,-101.822998,3282.0,Lubbock
LBE,Arnold Palmer Regional Airport,40.27590179,-79.40480042,1199.0,Latrobe
LBF,North Platte Regional Airport Lee Bird Field,41.12620163,-100.6839981,2777.0,North Platte
LBL,Liberal Mid-America Regional Airport,37.04420089999999,-100.95999909999999,2885.0,Liberal
LBT,Lumberton Regional Airport,34.609901428200004,-79.05940246579998,126.0,Lumberton
LJN,Texas Gulf Coast Regional Airport,29.108600616500002,-95.46209716799999,25.0,Angleton/Lake Jackson
LCH,Lake Charles Regional Airport,30.12610054016113,-93.22329711914062,15.0,Lake Charles
LCI,Laconia Municipal Airport,43.572700500500005,-71.4188995361,545.0,Laconia
LCK,Rickenbacker International Airport,39.813801,-82.927803,744.0,Columbus
LCQ,Lake City Gateway Airport,30.181999206500002,-82.57689666750002,201.0,Lake City
LDJ,Linden Airport,40.617401123,-74.2445983887,23.0,Linden
LDM,Mason County Airport,43.96250153,-86.40789795,646.0,Ludington
LEB,Lebanon Municipal Airport,43.626098632799994,-72.30419921880002,603.0,Lebanon
LEE,Leesburg International Airport,28.82309914,-81.80870056,76.0,Leesburg
LEM,Lemmon Municipal Airport,45.9187011719,-102.10600280799999,2571.0,Lemmon
LEW,Auburn Lewiston Municipal Airport,44.048500061000006,-70.2835006714,288.0,Auburn/Lewiston
LEX,Blue Grass Airport,38.0364990234375,-84.60590362548828,979.0,Lexington
LFI,Langley Air Force Base,37.082901000999996,-76.360496521,11.0,Hampton
LFK,Angelina County Airport,31.2339992523,-94.75,296.0,Lufkin
LFT,Lafayette Regional Airport,30.20529938,-91.98760223,42.0,Lafayette
LGA,La Guardia Airport,40.77719879,-73.87259674,21.0,New York
LGB,Long Beach /Daugherty Field/ Airport,33.81769943,-118.15200039999999,60.0,Long Beach
LGC,LaGrange Callaway Airport,33.0089,-85.072601,693.0,Lagrange
LGD,La Grande/Union County Airport,45.29019927979999,-118.00700378399999,2717.0,La Grande
LGF,Laguna Army Airfield,32.86000061,-114.39700320000001,433.0,Yuma Proving Ground(Yuma)
LGU,Logan-Cache Airport,41.7911987305,-111.851997375,4457.0,Logan
LHV,William T. Piper Memorial Airport,41.13560104,-77.42230225,556.0,Lock Haven
LIY,Wright AAF (Fort Stewart)/Midcoast Regional Airport,31.889098999999998,-81.562303,45.0,Fort Stewart(Hinesville)
LFN,Triangle North Executive Airport,36.0233,-78.330299,369.0,Louisburg
LIC,Limon Municipal Airport,39.274799346900004,-103.666000366,5374.0,Limon
LIT,Bill & Hillary Clinton National Airport/Adams Field,34.729400634799994,-92.22429656979999,262.0,Little Rock
LKP,Lake Placid Airport,44.264499664300004,-73.96189880370002,1747.0,Lake Placid
LOW,Louisa County Airport/Freeman Field,38.00979996,-77.9701004,493.0,Louisa
LKV,Lake County Airport,42.1610984802,-120.399002075,4733.0,Lakeview
CHL,Challis Airport,44.522999,-114.218002,5072.0,Challis
LMS,Louisville Winston County Airport,33.1461982727,-89.0625,575.0,Louisville
LMT,Crater Lake-Klamath Regional Airport,42.156101,-121.733002,4095.0,Klamath Falls
LNA,Palm Beach County Park Airport,26.59300041,-80.08509827,14.0,West Palm Beach
LND,Hunt Field,42.8152008057,-108.730003357,5586.0,Lander
LNK,Lincoln Airport,40.85100173950195,-96.75920104980469,1219.0,Lincoln
LNN,Willoughby Lost Nation Municipal Airport,41.6839981079,-81.3897018433,626.0,Willoughby
LNP,Lonesome Pine Airport,36.9874992371,-82.5299987793,2684.0,Wise
LNR,Tri-County Regional Airport,43.2117004395,-90.18160247799999,717.0,Lone Rock
LNS,Lancaster Airport,40.12170028686523,-76.29609680175781,403.0,Lancaster
LOL,Derby Field,40.0663986206,-118.565002441,3904.0,Lovelock
BBX,Wings Field,40.1375007629,-75.26509857180001,302.0,Philadelphia
LOT,Lewis University Airport,41.6072998,-88.09619904,679.0,Chicago/Romeoville
LOU,Bowman Field,38.2280006409,-85.6636962891,546.0,Louisville
LOZ,London-Corbin Airport/Magee Field,37.0821990967,-84.08489990230001,1212.0,London
LPC,Lompoc Airport,34.665599823,-120.46800231899999,88.0,Lompoc
LQK,Pickens County Airport,34.8100013733,-82.70290374759999,1013.0,Pickens
LRD,Laredo International Airport,27.543800354003906,-99.46160125732422,508.0,Laredo
LRF,Little Rock Air Force Base,34.916900634799994,-92.14969635010002,311.0,Jacksonville
LRJ,Le Mars Municipal Airport,42.77799988,-96.1937027,1197.0,Le Mars
LRU,Las Cruces International Airport,32.28939819335937,-106.9219970703125,4456.0,Las Cruces
LSB,Lordsburg Municipal Airport,32.3334999084,-108.69200134299999,4289.0,Lordsburg
LSE,La Crosse Municipal Airport,43.879002,-91.256699,655.0,La Crosse
LSF,Lawson Army Air Field (Fort Benning),32.337299346900004,-84.9913024902,232.0,Fort Benning(Columbus)
LSK,Lusk Municipal Airport,42.753799438499996,-104.404998779,4964.0,Lusk
LSN,Los Banos Municipal Airport,37.06290054,-120.8690033,121.0,Los Banos
LSV,Nellis Air Force Base,36.2361984253,-115.03399658200001,1870.0,Las Vegas
LTS,Altus Air Force Base,34.667098999000004,-99.26670074459999,1382.0,Altus
LUF,Luke Air Force Base,33.534999847399995,-112.383003235,1085.0,Glendale
LUK,Cincinnati Municipal Airport Lunken Field,39.10329819,-84.41860199,483.0,Cincinnati
LUL,Hesler Noble Field,31.6725997925,-89.172203064,238.0,Laurel
LVK,Livermore Municipal Airport,37.6934013367,-121.819999695,400.0,Livermore
LVL,Brunswick Municipal Airport,36.7728,-77.794296,329.0,Lawrenceville
LVM,Mission Field,45.6994018555,-110.44799804700001,4660.0,Livingston
LVS,Las Vegas Municipal Airport,35.6542015076,-105.14199829100001,6877.0,Las Vegas
LWB,Greenbrier Valley Airport,37.8582992554,-80.3994979858,2302.0,Lewisburg
LWC,Lawrence Municipal Airport,39.01119995,-95.21659851,833.0,Lawrence
LWL,Wells Municipal Airport/Harriet Field,41.117099761999995,-114.92199707,5772.0,Wells
LWM,Lawrence Municipal Airport,42.7172012329,-71.1233978271,148.0,Lawrence
LWS,Lewiston Nez Perce County Airport,46.3745002746582,-117.01499938964844,1442.0,Lewiston
LWT,Lewistown Municipal Airport,47.04930114746094,-109.46700286865234,4170.0,Lewistown
LWV,Lawrenceville Vincennes International Airport,38.7643013,-87.6054992676,430.0,Lawrenceville
LXN,Jim Kelly Field,40.7910003662,-99.7772979736,2413.0,Lexington
LXV,Lake County Airport,39.22029876710001,-106.31700134299999,9927.0,Leadville
LYH,Lynchburg Regional Preston Glenn Field,37.326698303222656,-79.20040130615234,938.0,Lynchburg
LYO,Lyons-Rice County Municipal Airport,38.34280014,-98.22689819,1691.0,Lyons
LZU,Gwinnett County Briscoe Field,33.97809982,-83.96240234,1061.0,Lawrenceville
PCU,Poplarville Pearl River County Airport,30.785999298095998,-89.504501342773,320.0,Poplarville
MLK,Malta Airport,48.366901397700005,-107.918998718,2254.0,Malta
MAC,Macon Downtown Airport,32.82210159,-83.56199646,437.0,Macon
MAE,Madera Municipal Airport,36.9886016846,-120.11199951200001,255.0,Madera
MAF,Midland International Airport,31.9424991607666,-102.2020034790039,2871.0,Midland
MAW,Malden Regional Airport,36.60060120000001,-89.99220276,294.0,Malden
MBG,Mobridge Municipal Airport,45.54650116,-100.40799709999999,1716.0,Mobridge
MBL,Manistee Co Blacker Airport,44.2723999,-86.24690247,621.0,Manistee
DXE,Bruce Campbell Field,32.438702,-90.103104,326.0,Madison
MBS,MBS International Airport,43.532901763916016,-84.07959747314453,668.0,Saginaw
MBY,Omar N Bradley Airport,39.4639015198,-92.42700195309999,867.0,Moberly
MCB,Mc Comb/Pike County Airport/John E Lewis Field,31.17849922,-90.47190094,413.0,Mc Comb
MCC,Mc Clellan Airfield,38.66759872,-121.40100100000001,77.0,Sacramento
MCD,Mackinac Island Airport,45.86489868,-84.63729858,739.0,Mackinac Island
MCE,Merced Regional Macready Field,37.28469849,-120.5139999,155.0,Merced
MCF,Mac Dill Air Force Base,27.84930038,-82.52120209,14.0,Tampa
MCI,Kansas City International Airport,39.2976,-94.713898,1026.0,Kansas City
MCK,Mc Cook Ben Nelson Regional Airport,40.20629883,-100.59200290000001,2583.0,Mc Cook
MCN,Middle Georgia Regional Airport,32.692798614501946,-83.64920043945312,354.0,Macon
MCO,Orlando International Airport,28.429399490356445,-81.30899810791016,96.0,Orlando
MCW,Mason City Municipal Airport,43.15779876710001,-93.33129882809999,1213.0,Mason City
MDD,Midland Airpark,32.036499023400005,-102.100997925,2803.0,Midland
MDH,Southern Illinois Airport,37.778099060058594,-89.25199890136719,411.0,Carbondale/Murphysboro
XMD,Madison Municipal Airport,44.01599884,-97.08589935,1718.0,Madison
MDT,Harrisburg International Airport,40.1935005188,-76.7633972168,310.0,Harrisburg
MDW,Chicago Midway International Airport,41.785999,-87.752403,620.0,Chicago
MDF,Taylor County Airport,45.10100174,-90.30329895,1478.0,Medford
MXE,Laurinburg Maxton Airport,34.791901,-79.365799,216.0,Maxton
MEI,Key Field,32.33259963989258,-88.75189971923828,297.0,Meridian
MEM,Memphis International Airport,35.04240036010742,-89.97669982910156,341.0,Memphis
MER,Castle Airport,37.38050079,-120.5680008,191.0,Merced
MEV,Minden-Tahoe Airport,39.00030136,-119.7509995,4722.0,Minden
MFD,Mansfield Lahm Regional Airport,40.82139968869999,-82.5166015625,1297.0,Mansfield
MFE,Mc Allen Miller International Airport,26.17580032,-98.23860168,107.0,Mc Allen
MFI,Marshfield Municipal Airport,44.6369018555,-90.1893005371,1277.0,Marshfield
MFR,Rogue Valley International Medford Airport,42.37419891357422,-122.8730010986328,1335.0,Medford
MFV,Accomack County Airport,37.646900177,-75.761100769,47.0,Melfa
MGC,Michigan City Municipal Airport,41.703300476100004,-86.8211975098,655.0,Michigan City
MGE,Dobbins Air Reserve Base,33.91540146,-84.51629639,1068.0,Marietta
MGJ,Orange County Airport,41.50999832,-74.26460266,364.0,Montgomery
MGM,Montgomery Regional (Dannelly Field) Airport,32.30059814,-86.39399719,221.0,Montgomery
MGR,Moultrie Municipal Airport,31.084899902300002,-83.8032989502,294.0,Moultrie
MGW,Morgantown Municipal Walter L. Bill Hart Field,39.64289856,-79.91629791,1248.0,Morgantown
MGY,Dayton-Wright Brothers Airport,39.5890007019,-84.224899292,957.0,Dayton
MHE,Mitchell Municipal Airport,43.7747993469,-98.0385971069,1304.0,Mitchell
MHK,Manhattan Regional Airport,39.14099884033203,-96.6707992553711,1057.0,Manhattan
MHL,Marshall Memorial Municipal Airport,39.0957984924,-93.2029037476,779.0,Marshall
MHR,Sacramento Mather Airport,38.55390167,-121.29799650000001,98.0,Sacramento
MHT,Manchester-Boston Regional Airport,42.932598,-71.435699,266.0,Manchester
MHV,Mojave Airport,35.05939865,-118.15200039999999,2801.0,Mojave
MIA,Miami International Airport,25.79319953918457,-80.29060363769531,8.0,Miami
MIB,Minot Air Force Base,48.4156,-101.358002,1667.0,Minot
MIE,Delaware County Johnson Field,40.2422981262207,-85.3958969116211,937.0,Muncie
MIT,Shafter Airport - Minter Field,35.507401,-119.192002,424.0,Shafter
MIV,Millville Municipal Airport,39.367802000000005,-75.072197,85.0,Millville
MJX,Ocean County Airport,39.92750168,-74.29239655,82.0,Toms River
MKC,Charles B. Wheeler Downtown Airport,39.12319946289063,-94.5927963256836,759.0,Kansas City
MKE,General Mitchell International Airport,42.94720077514648,-87.89659881591797,723.0,Milwaukee
MKG,Muskegon County Airport,43.169498,-86.238197,629.0,Muskegon
MKL,McKellar-Sipes Regional Airport,35.599899,-88.915604,434.0,Jackson
MRK,Marco Island Executive Airport,25.995001000000002,-81.672501,5.0,Marco Island
MLB,Melbourne International Airport,28.10280036926269,-80.64530181884766,33.0,Melbourne
MLC,Mc Alester Regional Airport,34.882401,-95.783501,770.0,Mc Alester
MLI,Quad City International Airport,41.44850158691406,-90.50749969482422,590.0,Moline
MLS,Frank Wiley Field,46.428001403808594,-105.88600158691406,2630.0,Miles City
MLU,Monroe Regional Airport,32.51089859008789,-92.0376968383789,79.0,Monroe
MMH,Mammoth Yosemite Airport,37.62409973,-118.83799740000002,7135.0,Mammoth Lakes
MMI,McMinn County Airport,35.39730072,-84.56259918,875.0,Athens
MML,Southwest Minnesota Regional Airport - Marshall/Ryan Field,44.45050049,-95.82189941,1183.0,Marshall
MMS,Selfs Airport,34.231498718299996,-90.2895965576,162.0,Marks
MMT,Mc Entire Joint National Guard Base,33.92079926,-80.80130005,254.0,Eastover
MMU,Morristown Municipal Airport,40.799400329589844,-74.41490173339844,187.0,Morristown
MNM,Menominee Regional Airport,45.126701000000004,-87.638397,625.0,Menominee
MNN,Marion Municipal Airport,40.6161994934,-83.06349945070002,993.0,Marion
MOB,Mobile Regional Airport,30.691200256348,-88.242797851562,219.0,Mobile
MOD,Modesto City Co-Harry Sham Field,37.62580109,-120.9540024,97.0,Modesto
MOT,Minot International Airport,48.2593994140625,-101.27999877929688,1716.0,Minot
RMY,Mariposa Yosemite Airport,37.510898590100005,-120.040000916,2254.0,Mariposa
MPJ,Petit Jean Park Airport,35.138901000000004,-92.90920200000001,923.0,Morrilton
MPO,Pocono Mountains Municipal Airport,41.137503,-75.378897,1915.0,Mount Pocono
MPV,Edward F Knapp State Airport,44.20349884,-72.56230164,1166.0,Barre/Montpelier
MPZ,Mount Pleasant Municipal Airport,40.94660187,-91.51110077,730.0,Mount Pleasant
MQB,Macomb Municipal Airport,40.520099639899996,-90.6523971558,707.0,Macomb
MEO,Dare County Regional Airport,35.91899872,-75.69550323,13.0,Manteo
CTH,Chester County G O Carlson Airport,39.97900009,-75.86550140000001,660.0,Coatesville
MQY,Smyrna Airport,36.0089988708,-86.52010345459999,543.0,Smyrna
MRB,Eastern WV Regional Airport/Shepherd Field,39.40190125,-77.98459625,565.0,Martinsburg
MRC,Maury County Airport,35.5541000366,-87.17890167239997,681.0,Columbia/Mount Pleasant
MRF,Marfa Municipal Airport,30.371098999999997,-104.017997,4849.0,Marfa
MRN,Foothills Regional Airport,35.820202,-81.611397,1270.0,Morganton
MRY,Monterey Peninsula Airport,36.58700180053711,-121.84300231933594,257.0,Monterey
MSL,Northwest Alabama Regional Airport,34.74530029,-87.61019897,551.0,Muscle Shoals
MSN,Dane County Regional Truax Field,43.13990020751953,-89.3375015258789,887.0,Madison
MSO,Missoula International Airport,46.91630173,-114.0910034,3206.0,Missoula
MSP,Minneapolis-St Paul International/Wold-Chamberlain Airport,44.882,-93.221802,841.0,Minneapolis
MSS,Massena International Richards Field,44.93579864501953,-74.84559631347656,215.0,Massena
MSV,Sullivan County International Airport,41.701596,-74.794997,1403.0,Monticello
MSY,Louis Armstrong New Orleans International Airport,29.99340057373047,-90.25800323486328,4.0,New Orleans
MTC,Selfridge Air National Guard Base Airport,42.613463,-82.836919,580.0,Mount Clemens
MTH,The Florida Keys Marathon Airport,24.726101,-81.051399,5.0,Marathon
MTJ,Montrose Regional Airport,38.5097999573,-107.89399719200001,5759.0,Montrose
MTN,Martin State Airport,39.325699,-76.413803,21.0,Baltimore
MTO,Coles County Memorial Airport,39.477901,-88.279198,722.0,Mattoon/Charleston
MTP,Montauk Airport,41.0765,-71.920797,6.0,Montauk
MTW,Manitowoc County Airport,44.128799,-87.68060200000001,651.0,Manitowoc
MUI,Muir Army Air Field (Fort Indiantown Gap) Airport,40.434799,-76.569397,488.0,Fort Indiantown Gap(Annville)
MUO,Mountain Home Air Force Base,43.043597999999996,-115.872002,2996.0,Mountain Home
MUT,Muscatine Municipal Airport,41.367803,-91.148201,547.0,Muscatine
MVC,Monroe County Aeroplex Airport,31.458000000000002,-87.350996,419.0,Monroeville
MVE,Montevideo Chippewa County Airport,44.969101,-95.710297,1034.0,Montevideo
MVL,Morrisville Stowe State Airport,44.53459930419999,-72.6139984131,732.0,Morrisville
MVY,Martha's Vineyard Airport,41.393100738499996,-70.6143035889,67.0,Martha's Vineyard
MWA,Williamson County Regional Airport,37.75500107,-89.01110077,472.0,Marion
MWC,Lawrence J Timmerman Airport,43.110401,-88.034401,745.0,Milwaukee
MWH,Grant County International Airport,47.20769882,-119.3199997,1189.0,Moses Lake
MWL,Mineral Wells Airport,32.7816009521,-98.0602035522,974.0,Mineral Wells
MWO,Middletown Regional Airport,39.530998,-84.395302,650.0,Middletown
MXA,Manila Municipal Airport,35.894402,-90.154602,242.0,Manila
MXF,Maxwell Air Force Base,32.3829,-86.365799,171.0,Montgomery
MYF,Montgomery-Gibbs Executive Airport,32.8157,-117.139999,427.0,San Diego
MYL,McCall Municipal Airport,44.88970184,-116.10099790000001,5024.0,McCall
MYR,Myrtle Beach International Airport,33.6796989441,-78.9282989502,25.0,Myrtle Beach
MYV,Yuba County Airport,39.09780121,-121.5699997,64.0,Marysville
MZJ,Pinal Airpark,32.5106010437,-111.32800293,1893.0,Marana
MZZ,Marion Municipal Airport,40.489898681599996,-85.6797027588,859.0,Marion
CTX,Cortland County Chase Field,42.59260178,-76.21489716,1198.0,Cortland
SXY,Sidney Municipal Airport,42.302600860596,-75.41600036621101,1027.0,Sidney
ESP,Stroudsburg Pocono Airport,41.035800933800004,-75.1605987549,480.0,East Stroudsburg
NBG,New Orleans NAS JRB/Alvin Callender Field,29.82530022,-90.03500366,2.0,New Orleans
NHX,Naval Outlying Field Barin,30.389099121100006,-87.63529968259998,54.0,Foley
DGN,Dahlgren Naval Surface Warfare Center Airport,38.33250046,-77.03720093,18.0,Dahlgren
NEL,Lakehurst Maxfield Field Airport,40.03329849,-74.353302,101.0,Lakehurst
NEN,Whitehouse Naval Outlying Field,30.353900909424,-81.87190246582,99.0,Jacksonville
NEW,Lakefront Airport,30.042400360107003,-90.02829742431601,8.0,New Orleans
NFL,Fallon Naval Air Station,39.41659927,-118.70099640000001,3934.0,Fallon
FWH,NAS Fort Worth JRB/Carswell Field,32.76919937,-97.4414978,650.0,Fort Worth
NGU,Norfolk Naval Station (Chambers Field),36.937599,-76.289299,17.0,Norfolk
NHK,Patuxent River Naval Air Station (Trapnell Field),38.285999,-76.41179699999999,39.0,Patuxent River
NHZ,Brunswick Executive Airport,43.89220047,-69.93859863,72.0,Brunswick
NIP,Jacksonville Naval Air Station (Towers Field),30.2358,-81.680603,21.0,Jacksonville
NJK,El Centro NAF Airport (Vraciu Field),32.829201,-115.671996,-42.0,El Centro
NKX,Miramar Marine Corps Air Station - Mitscher Field,32.86840057,-117.1429977,477.0,San Diego
NLC,Lemoore Naval Air Station (Reeves Field) Airport,36.33300018,-119.95200349999999,232.0,Lemoore
NPA,Pensacola Naval Air Station/Forrest Sherman Field,30.35269928,-87.31860352,28.0,Pensacola
NQA,Millington-Memphis Airport,35.356701,-89.8703,320.0,Millington
NQI,Kingsville Naval Air Station,27.5072002411,-97.8097000122,50.0,Kingsville
NQX,Naval Air Station Key West/Boca Chica Field,24.57579994,-81.68890381,6.0,Key West
NRB,Naval Station Mayport (Admiral David L. Mcdonald Field),30.39109993,-81.42469788,15.0,Mayport
NRS,Naval Outlying Field Imperial Beach (Ream Field),32.56669998,-117.11699679999998,24.0,Imperial Beach
NSE,Whiting Field Naval Air Station - North,30.724199300000002,-87.02189636,199.0,Milton
NTD,Point Mugu Naval Air Station (Naval Base Ventura Co),34.120300293,-119.12100219700001,13.0,Point Mugu
NTU,Oceana Naval Air Station,36.820702000000004,-76.033501,23.0,Virginia Beach
NUQ,Moffett Federal Airfield,37.4161,-122.04900400000001,32.0,Mountain View
NUW,Whidbey Island Naval Air Station (Ault Field),48.351799,-122.655998,47.0,Oak Harbor
YUM,Yuma MCAS/Yuma International Airport,32.65660095,-114.6060028,213.0,Yuma
NZY,North Island Naval Air Station-Halsey Field,32.69919968,-117.2149963,26.0,San Diego
NVN,Nervino Airport,39.8185005188,-120.35299682600001,4900.0,Beckwourth
COA,Columbia Airport,38.0303993225,-120.415000916,2118.0,Columbia
ODC,Oakdale Airport,37.75630188,-120.8000031,237.0,Oakdale
EYR,Yerington Municipal Airport,39.0041007996,-119.157997131,4378.0,Yerington
OAJ,Albert J Ellis Airport,34.8292007446,-77.61209869380002,94.0,Jacksonville
OAK,Metropolitan Oakland International Airport,37.721298,-122.221001,9.0,Oakland
OAR,Marina Municipal Airport,36.68190002,-121.762001,137.0,Marina
OBE,Okeechobee County Airport,27.2628002167,-80.8498001099,34.0,Okeechobee
OCF,Ocala International Airport - Jim Taylor Field,29.17259979,-82.22419739,90.0,Ocala
OCH,A L Mangham Jr. Regional Airport,31.57799911,-94.70950317,355.0,Nacogdoches
OCW,Warren Field,35.570499420166,-77.049797058105,38.0,Washington
OEA,O'Neal Airport,38.6913986206,-87.5522003174,414.0,Vincennes
OEO,L O Simenstad Municipal Airport,45.310001373290994,-92.69190216064501,903.0,Osceola
OFF,Offutt Air Force Base,41.118301391602,-95.912498474121,1052.0,Omaha
OFK,Karl Stefan Memorial Airport,41.985500335693004,-97.435096740723,1573.0,Norfolk
OGA,Searle Field,41.11949921,-101.76999659999998,3279.0,Ogallala
OGB,Orangeburg Municipal Airport,33.456798553467,-80.859497070312,195.0,Orangeburg
OGD,Ogden Hinckley Airport,41.195899963379,-112.0120010376,4473.0,Ogden
OGS,Ogdensburg International Airport,44.681900024399994,-75.46549987790002,297.0,Ogdensburg
OIC,Lt Warren Eaton Airport,42.566600799561,-75.524101257324,1025.0,Norwich
OJC,Johnson County Executive Airport,38.84759903,-94.73760223,1096.0,Olathe
OCN,Oceanside Municipal Airport,33.217300415039,-117.35399627686,28.0,Oceanside
OKC,Will Rogers World Airport,35.39310073852539,-97.60070037841795,1295.0,Oklahoma City
ODW,AJ Eisenberg Airport,48.251499176,-122.67400360100001,193.0,Oak Harbor
OKK,Kokomo Municipal Airport,40.528198242188,-86.05899810791,830.0,Kokomo
OKM,Okmulgee Regional Airport,35.668098449706996,-95.948699951172,720.0,Okmulgee
OKS,Garden County Airport/King Rhiley Field,41.401001,-102.355003,3394.0,Oshkosh
WGO,Winchester Regional Airport,39.14350128,-78.14440155,726.0,Winchester
OLD,"Dewitt Field,Old Town Municipal Airport",44.95280075,-68.67430115,126.0,Old Town
OLF,L M Clayton Airport,48.0945014954,-105.57499694799999,1986.0,Wolf Point
OLM,Olympia Regional Airport,46.9693985,-122.90299990000001,209.0,Olympia
OLS,Nogales International Airport,31.4177,-110.848,3955.0,Nogales
OLV,Olive Branch Airport,34.9786987305,-89.78690338130001,402.0,Olive Branch
OMA,Eppley Airfield,41.3032,-95.89409599999999,984.0,Omaha
OMK,Omak Airport,48.4644012451,-119.517997742,1305.0,Omak
ONL,The O'Neill Municipal John L Baker Field,42.469898,-98.688103,2031.0,O'Neill
ONO,Ontario Municipal Airport,44.020500183105,-117.01399993896001,2193.0,Ontario
ONP,Newport Municipal Airport,44.580399,-124.057999,160.0,Newport
ONT,Ontario International Airport,34.05599975585937,-117.60099792480469,944.0,Ontario
OPF,Miami-Opa Locka Executive Airport,25.906999999999996,-80.278397,8.0,Miami
NCO,Quonset State Airport,41.597099304199,-71.412101745605,18.0,North Kingstown
ORD,Chicago O'Hare International Airport,41.9786,-87.9048,672.0,Chicago
ORF,Norfolk International Airport,36.89459991455078,-76.20120239257812,26.0,Norfolk
ORH,Worcester Regional Airport,42.26729965209961,-71.87570190429688,1009.0,Worcester
ORL,Orlando Executive Airport,28.5455,-81.332901,113.0,Orlando
ESD,Orcas Island Airport,48.708198547399995,-122.91000366200001,31.0,Eastsound
OSC,Oscoda Wurtsmith Airport,44.451599,-83.39409599999999,633.0,Oscoda
OSH,Wittman Regional Airport,43.98440170288086,-88.55699920654297,808.0,Oshkosh
OSU,The Ohio State University Airport - Don Scott Field,40.0798,-83.072998,905.0,Columbus
OTH,Southwest Oregon Regional Airport,43.41709899902344,-124.24600219726562,17.0,North Bend
OTM,Ottumwa Regional Airport,41.10660172,-92.44789886,845.0,Ottumwa
OUN,University of Oklahoma Westheimer Airport,35.2456,-97.472099,1182.0,Norman
OVE,Oroville Municipal Airport,39.487800598145,-121.62200164795,192.0,Oroville
OWA,Owatonna Degner Regional Airport,44.12340164,-93.26059723,1145.0,Owatonna
OWB,Owensboro Daviess County Airport,37.74010086,-87.16680145,407.0,Owensboro
OWD,Norwood Memorial Airport,42.1904983521,-71.1728973389,49.0,Norwood
OWK,Central Maine Airport of Norridgewock,44.71549988,-69.86650085,270.0,Norridgewock
OCE,Ocean City Municipal Airport,38.310398101806996,-75.124000549316,11.0,Ocean City
OXC,Waterbury Oxford Airport,41.47859954834,-73.13520050048801,726.0,Oxford
OXD,Miami University Airport,39.50230026,-84.78440094,1041.0,Oxford
OXR,Oxnard Airport,34.200801849365,-119.20700073241998,45.0,Oxnard
STQ,St Marys Municipal Airport,41.412498474121,-78.502601623535,1934.0,St Marys
OZA,Ozona Municipal Airport,30.735300064087,-101.20300292969,2381.0,Ozona
OZR,Cairns AAF (Fort Rucker) Air Field,31.27569962,-85.71340179,301.0,Fort Rucker/Ozark
BSQ,Bisbee Municipal Airport,31.3640003204,-109.883003235,4780.0,Bisbee
PXL,Polacca Airport,35.7916984558,-110.422996521,5573.0,Polacca
GLB,San Carlos Apache Airport,33.353099823,-110.666999817,3261.0,Globe
HBK,Holbrook Municipal Airport,34.940700531,-110.13800048799999,5262.0,Holbrook
CWX,Cochise County Airport,32.24539948,-109.8949966,4187.0,Willcox
PAE,Snohomish County (Paine Field) Airport,47.90629959,-122.28199769999999,606.0,Everett
PAH,Barkley Regional Airport,37.06079864501953,-88.7738037109375,410.0,Paducah
PAM,Tyndall Air Force Base,30.0695991516,-85.57540130619998,17.0,Panama City
PJB,Payson Airport,34.256801605225,-111.33899688721,5157.0,Payson
PAO,Palo Alto Airport of Santa Clara County,37.461101532,-122.114997864,4.0,Palo Alto
PBF,"Pine Bluff Regional Airport, Grider Field",34.1731,-91.9356,206.0,Pine Bluff
PBG,Plattsburgh International Airport,44.6509017944336,-73.46810150146484,234.0,Plattsburgh
PBI,Palm Beach International Airport,26.68320083618164,-80.09559631347656,19.0,West Palm Beach
PVL,Pike County-Hatcher Field,37.561798100000004,-82.56639862,1473.0,Pikeville
PCD,Prairie Du Chien Municipal Airport,43.019298553466996,-91.12370300293001,661.0,Prairie Du Chien
PDK,DeKalb Peachtree Airport,33.8755989075,-84.3020019531,1003.0,Atlanta
PDT,Eastern Oregon Regional At Pendleton Airport,45.695098877,-118.84100341799999,1497.0,Pendleton
PDX,Portland International Airport,45.58869934,-122.59799960000001,31.0,Portland
PEQ,Pecos Municipal Airport,31.382400512694996,-103.51100158691,2613.0,Pecos
PGA,Page Municipal Airport,36.92610168,-111.447998,4316.0,Page
PGD,Charlotte County Airport,26.92020035,-81.99050140000001,26.0,Punta Gorda
PGR,Kirk Field,36.06290054,-90.50779724,290.0,Paragould
PGV,Pitt Greenville Airport,35.6352005,-77.38529968,26.0,Greenville
PHD,Harry Clever Field,40.470901489258,-81.419700622559,894.0,New Philadelphia
PHF,Newport News Williamsburg International Airport,37.13190079,-76.49299622,42.0,Newport News
ADR,Robert F Swinnie Airport,33.451698303200004,-79.5261993408,26.0,Andrews
PHK,Palm Beach County Glades Airport,26.78499985,-80.69339752,16.0,Pahokee
PHL,Philadelphia International Airport,39.87189865112305,-75.24109649658203,36.0,Philadelphia
PHN,St Clair County International Airport,42.91099929999999,-82.52890015,650.0,Port Huron
PHP,Philip Airport,44.048599243164,-101.59899902344,2207.0,Philip
PHT,Henry County Airport,36.3381996155,-88.38289642330002,580.0,Paris
PHX,Phoenix Sky Harbor International Airport,33.43429946899414,-112.01200103759766,1135.0,Phoenix
PIA,General Wayne A. Downing Peoria International Airport,40.664199829100006,-89.6932983398,660.0,Peoria
PIB,Hattiesburg Laurel Regional Airport,31.467100143432614,-89.33709716796875,298.0,Hattiesburg/Laurel
PIE,St Petersburg Clearwater International Airport,27.91020012,-82.68740082,11.0,St Petersburg-Clearwater
PIH,Pocatello Regional Airport,42.9098014831543,-112.59600067138672,4452.0,Pocatello
PIM,Harris County Airport,32.8406982422,-84.8824005127,902.0,Pine Mountain
PIR,Pierre Regional Airport,44.38270187,-100.2860031,1744.0,Pierre
PIT,Pittsburgh International Airport,40.49150085,-80.23290253,1203.0,Pittsburgh
PKB,Mid Ohio Valley Regional Airport,39.34510040283203,-81.43920135498047,858.0,Parkersburg
PKD,Park Rapids Municipal Konshok Field,46.9006,-95.073095,1445.0,Park Rapids
PKF,Park Falls Municipal Airport,45.955001831055,-90.42440032959,1500.0,Park Falls
PLK,M. Graham Clark Downtown Airport,36.62590027,-93.22889709,940.0,Branson / Hollister
PLN,Pellston Regional Airport of Emmet County Airport,45.57089996,-84.79669952,721.0,Pellston
PLR,St Clair County Airport,33.558799743652,-86.24909973144501,485.0,Pell City
PMB,Pembina Municipal Airport,48.94250106810001,-97.2407989502,795.0,Pembina
PMD,Palmdale Regional/USAF Plant 42 Airport,34.62939835,-118.08499909999999,2543.0,Palmdale
PMH,Greater Portsmouth Regional Airport,38.8404998779,-82.84729766850002,663.0,Portsmouth
PPM,Pompano Beach Airpark,26.247100830078,-80.11109924316399,19.0,Pompano Beach
PWY,Ralph Wenz Field,42.79550171,-109.8069992,7102.0,Pinedale
PNC,Ponca City Regional Airport,36.73199844,-97.09980011,1008.0,Ponca City
PNE,Northeast Philadelphia Airport,40.081902,-75.010597,120.0,Philadelphia
PNN,Princeton Municipal Airport,45.200698852539,-67.56439971923801,266.0,Princeton
PNS,Pensacola International Airport,30.4734,-87.1866,121.0,Pensacola
POB,Pope Field,35.1708984375,-79.014503479004,217.0,Fayetteville
POC,Brackett Field,34.091598510742,-117.78199768066001,1011.0,La Verne
POE,Polk Army Air Field,31.044799800000003,-93.1917038,330.0,Fort Polk
POF,Poplar Bluff Municipal Airport,36.773899078369006,-90.324897766113,331.0,Poplar Bluff
POU,Dutchess County Airport,41.6265983581543,-73.88420104980469,165.0,Poughkeepsie
POY,Powell Municipal Airport,44.867198944091996,-108.79299926758002,5092.0,Powell
PPA,Perry Lefors Field,35.612998962402,-100.99600219726999,3245.0,Pampa
PPF,Tri-City Airport,37.32989883,-95.5062027,900.0,Parsons
LPO,La Porte Municipal Airport,41.5724983215,-86.73449707030001,812.0,La Porte
PQI,Presque Isle International Airport,46.688999,-68.0448,534.0,Presque Isle
PGL,Trent Lott International Airport,30.462799072266,-88.529197692871,17.0,Pascagoula
PRB,Paso Robles Municipal Airport,35.67290115,-120.6269989,840.0,Paso Robles
PRC,Prescott Regional Airport - Ernest A. Love Field,34.654499,-112.41999799999999,5045.0,Prescott
PRO,Perry Municipal Airport,41.82799911,-94.15989685,1013.0,Perry
PRX,Cox Field,33.636600494385,-95.45079803466801,547.0,Paris
PSC,Tri Cities Airport,46.26470184326172,-119.11900329589844,410.0,Pasco
PSF,Pittsfield Municipal Airport,42.4268,-73.2929,1194.0,Pittsfield
PSK,New River Valley Airport,37.137298583984,-80.678497314453,2105.0,Dublin
PSM,Portsmouth International at Pease Airport,43.0778999329,-70.8233032227,100.0,Portsmouth
PSN,Palestine Municipal Airport,31.779699325562,-95.706298828125,423.0,Palestine
PGO,Stevens Field,37.28630066,-107.0559998,7664.0,Pagosa Springs
